Name in English,Number of speakers,Degree of endangerment,Latitude,Longitude
South Italian,7500000,Vulnerable,40.9798,15.249
Sicilian,5000000,Vulnerable,37.4399,14.5019
Low Saxon,4800000,Vulnerable,53.4029,10.3601
Belarusian,4000000,Vulnerable,53.956,27.5756
Lombard,3500000,Definitely endangered,45.7215,9.3273
Romani,3500000,Definitely endangered,46.3165,22.3681
Yiddish (Israel),3000000,Definitely endangered,32.0833,34.8333
Gondi,2713790,Vulnerable,19.5804,80.4418
Limburgian-Ripuarian,2600000,Vulnerable,50.7781,6.0864
Quechua of Southern Bolivia,2300000,Vulnerable,-18.0675,-65.7641
Kumaoni,2003783,Vulnerable,29.4778,79.8486
Aymara,2000000,Vulnerable,-16.5835,-68.302
Emilian-Romagnol,2000000,Definitely endangered,44.127,12.0739
Piedmontese,2000000,Definitely endangered,45.2013,7.8662
Venetan,2000000,Vulnerable,45.4601,12.1948
Zazaki,2000000,Vulnerable,38.8824,40.4846
Kurux (India),1751489,Vulnerable,22.1467,85.2758
Tamajeq,1750000,Vulnerable,17.2352,8.0859
Tulu,1722768,Vulnerable,12.0178,75.7067
Kangdi,1700000,Definitely endangered,32.4356,76.1242
Scots,1500000,Vulnerable,56.2189,-3.7683
Torlak,1500000,Vulnerable,42.9644,22.1374
West Flemish,1500000,Vulnerable,51.0275,3.0541
Bashkir,1379727,Vulnerable,54.7309,55.9863
Chechen,1331844,Vulnerable,43.1971,45.7031
Chuvash,1325382,Vulnerable,56.1394,47.2412
Meithei,1250000,Vulnerable,24.7667,93.8946
Tamang,1196639,Vulnerable,27.7365,85.6858
Quechua of Cuzco,1115000,Vulnerable,-13.4537,-72.0098
Eastern Slovak,1000000,Vulnerable,48.8068,21.7968
Ligurian,1000000,Definitely endangered,44.5748,8.7011
Rusyn,1000000,Vulnerable,48.4437,22.9394
Talysh,1000000,Vulnerable,38.814,48.6804
Kui,916222,Vulnerable,19.5908,83.9575
Khasi,912000,Vulnerable,25.691,91.8676
Bodo,900000,Vulnerable,26.7554,92.8674
Campidanese,900000,Definitely endangered,39.2991,8.9868
K'iche' (Guatemala),890596,Vulnerable,15.0309,-91.1485
Quechua of Ayacucho,850000,Definitely endangered,-13.1276,-74.2071
Newar,825458,Definitely endangered,27.6981,85.3198
Mon,800000,Vulnerable,16.4666,97.7833
Polesian,800000,Vulnerable,51.8629,23.9501
Tamaceq,800000,Definitely endangered,16.7992,-3.0102
Avar,784840,Vulnerable,42.4801,46.8017
Mundari,750000,Vulnerable,22.3297,86.0449
Welsh,750000,Vulnerable,52.4459,-3.5485
Angika,740892,Vulnerable,24.7451,85.3124
Q'eqchi' (Guatemala),716101,Vulnerable,15.4707,-90.3722
Picard,700000,Severely endangered,50.2331,2.7905
Kokborok,695000,Vulnerable,23.7752,91.6918
Basque,660000,Vulnerable,43.133,-2.0764
Kabard-Cherkes,650000,Vulnerable,43.7393,43.4289
Mandeali,611930,Definitely endangered,31.4099,76.9921
Friulian,600000,Definitely endangered,46.1037,13.1396
Quechua of Ancash and Huánuco,600000,Definitely endangered,-9.4598,-77.1789
Walloon,600000,Definitely endangered,50.4575,4.8559
Mising,550000,Definitely endangered,26.9612,94.0539
Ossete,550000,Vulnerable,42.9564,44.4946
Mizo,529000,Vulnerable,22.9988,92.9223
Dargwa,503523,Vulnerable,42.1145,47.4938
Aromanian,500000,Definitely endangered,40.2292,21.1376
Brahui,500000,Vulnerable,29.0369,66.5826
Languedocian,500000,Severely endangered,43.8899,2.5378
Lezgian,500000,Vulnerable,41.4921,48.0541
Mahasui,496024,Definitely endangered,31.2738,77.1295
Magar,489383,Definitely endangered,28.0816,83.4301
Mam (Guatemala),477717,Vulnerable,14.9305,-91.9078
Udmurt,463837,Definitely endangered,57.2315,52.8662
Huasteca Náhuatl,463183,Vulnerable,21.3835,-98.9902
Kumyk,458121,Vulnerable,43.397,46.9775
Yakut,456288,Vulnerable,62.3496,130.8691
Kaqchikel (Guatemala),444954,Vulnerable,14.7814,-90.7925
Karbi,420000,Vulnerable,26.2934,93.2299
Eastern Mari,414211,Definitely endangered,56.632,47.8784
Ingush,405343,Vulnerable,43.145,45.1043
Erzya,400000,Definitely endangered,54.1302,45.4394
Ho,400000,Vulnerable,21.637,86.4404
Judezmo (Israel),400000,Severely endangered,32.0872,34.7737
Lalo,400000,Vulnerable,25.383,99.9426
Limousin,400000,Severely endangered,46.0579,1.8017
Logudorese,400000,Definitely endangered,40.1116,9.1845
Mapuche (Chile),400000,Definitely endangered,-38.5653,-73.081
Central Náhuatl,395581,Vulnerable,19.191,-99.0236
Moselle Franconian,390000,Vulnerable,49.6071,6.1248
Bantawa,371056,Vulnerable,27.0994,87.0048
Santa,360000,Vulnerable,35.5411,102.7935
Mingrelian,350000,Definitely endangered,42.4599,41.7205
West Frisian,350000,Vulnerable,53.1006,5.6579
Gurung,338925,Definitely endangered,28.275,84.1782
Guajiro,318500,Vulnerable,11.8673,-71.9824
Karachay-Balkar,302748,Vulnerable,44.2137,42.8466
Adyge,300000,Vulnerable,44.9181,39.7485
Buryat (Trans-Baikal),300000,Definitely endangered,50.8336,109.5117
Kurru,300000,Definitely endangered,16.6151,81.6284
Kuvi,300000,Definitely endangered,18.9478,83.5839
Limbu,300000,Definitely endangered,27.096,87.7356
Moroccan Judeo-Arabic (Israel),300000,Definitely endangered,32.0476,34.7552
Plautdietsch,300000,Definitely endangered,47.0738,35.5545
Pontic Greek,300000,Definitely endangered,40.847,40.0149
"Quichua (Cotopaxi, Tungurahua and Chimborazo)",300000,Definitely endangered,-1.8673,-78.9257
Waxiang,300000,Vulnerable,28.5652,110.3576
Oyrat,280000,Definitely endangered,46.195,88.7255
Garhwali,279500,Vulnerable,30.0976,79.1235
Bade,250000,Vulnerable,12.801,11.1181
Breton,250000,Severely endangered,48.2246,-3.9331
Gascon,250000,Definitely endangered,43.1811,-0.1428
Phula (China),250000,Vulnerable,22.6001,104.0004
Sora,250000,Vulnerable,19.1244,83.2104
Konyak,248000,Vulnerable,26.9367,95.1745
Ao,243000,Vulnerable,26.4361,94.6472
Tuvan,242754,Vulnerable,51.7134,94.3945
Nafusi,240000,Severely endangered,32.6393,13.4252
Suret,240000,Definitely endangered,36.4477,43.2971
Malto,224926,Definitely endangered,23.7853,85.4736
Khowar,222800,Vulnerable,35.8667,71.7956
Maiya,220000,Vulnerable,35.3151,72.908
Komi,217316,Definitely endangered,62.3087,51.5917
Alpine Provençal,200000,Definitely endangered,44.7467,6.6796
Gallo,200000,Severely endangered,47.931,-2.0544
Gera,200000,Vulnerable,10.5553,10.0579
Irula,200000,Vulnerable,11.4369,76.5032
Kharia,200000,Vulnerable,21.8003,85.4956
Khorasani Turk,200000,Vulnerable,36.6596,57.854
Korku,200000,Vulnerable,20.3034,80.2441
Moksha,200000,Definitely endangered,54.1817,43.2751
Western Armenian (Middle East),200000,Definitely endangered,33.884,35.5133
Western Cham,200000,Vulnerable,12.0333,105.4333
Tshangla,193000,Vulnerable,27.1275,91.9335
Thado,191000,Vulnerable,24.4521,93.2354
Gagauz (Bessarabia),180000,Definitely endangered,46.0922,28.7951
Kului,170770,Definitely endangered,31.4403,77.1487
Adi,170000,Vulnerable,28.3527,95.2294
Lhota,170000,Vulnerable,26.1603,94.3725
Nyishi,170000,Vulnerable,27.5277,93.0981
Ngäbere (Panama),169130,Vulnerable,9.3395,-82.2428
Kodagu,166187,Definitely endangered,11.6952,75.9375
Corsican,160000,Definitely endangered,42.0819,9.0307
Dzongkha,160000,Vulnerable,27.44,89.6731
Kalmyk,153602,Definitely endangered,46.2026,45.8239
Lak,153373,Vulnerable,42.0125,47.2521
Asturian-Leonese,150000,Definitely endangered,42.7954,-5.6689
Latgalian,150000,Vulnerable,56.1822,27.1362
Provençal,150000,Severely endangered,43.5485,6.1083
Rabha,150000,Vulnerable,25.9284,90.9777
Tamzabit,150000,Vulnerable,32.4816,3.6694
Sherpa,143693,Vulnerable,27.739,86.839
Tangkhul,142000,Vulnerable,25.0358,94.4824
Q'aanjob'al,139830,Vulnerable,15.6019,-91.4441
Badaga,134514,Definitely endangered,11.3642,76.5266
Angami,132000,Vulnerable,25.7553,94.1308
Laz,130000,Definitely endangered,41.2736,41.2646
Tabasaran,128391,Vulnerable,41.8081,47.9882
Chambeali,126589,Definitely endangered,32.9072,76.5307
Abkhaz,125000,Vulnerable,43.133,40.8471
Phom,123000,Vulnerable,26.7799,94.9493
Kolami,121855,Definitely endangered,20.5093,78.1787
Navajo,120000,Vulnerable,35.8044,-108.475
Sassarese,120000,Definitely endangered,40.6139,8.6132
Tamahaq (Algeria),120000,Vulnerable,22.8369,5.5371
Konda,118597,Definitely endangered,18.2763,82.9385
Sierra Totonac,118367,Severely endangered,20.2461,-97.6586
Jaunsari,114733,Definitely endangered,30.4859,78.0908
Dimasa,112000,Vulnerable,24.7368,92.9003
Ladakhi,105000,Vulnerable,34.0617,77.5909
Salar,104503,Vulnerable,36.2752,102.4584
Simi,104000,Vulnerable,25.9777,94.5922
Phurhepecha,102988,Vulnerable,19.3111,-102.041
Crimean Tatar (Crimea),100000,Severely endangered,45.3212,34.3212
Dagur (Nonni),100000,Definitely endangered,47.9163,124.1235
Francoprovençal,100000,Definitely endangered,45.7828,6.9982
Gallurese,100000,Definitely endangered,40.8802,9.4482
Mapuche (Argentina),100000,Severely endangered,-40.0791,-71.0156
Mehri,100000,Definitely endangered,16.5993,52.8057
Miskito (Nicaragua),100000,Vulnerable,12.4001,-83.7332
Ordos,100000,Definitely endangered,39.1641,108.1054
Quechua of Northern Bolivia,100000,Vulnerable,-15.3649,-69.0518
Suba,100000,Vulnerable,-0.9942,34.519
Garífuna (Honduras),98000,Vulnerable,15.6754,-88.1476
Embera (Colombia),95000,Vulnerable,6.1624,-76.8383
Kabui,95000,Vulnerable,24.7218,93.6584
Shughni,95000,Vulnerable,37.4879,71.5374
Permyak,94328,Definitely endangered,59.204,54.5361
Poqomchi',92941,Vulnerable,15.3757,-90.4288
Yimchungru,92000,Vulnerable,25.9629,94.9713
Nogay (Caucasus),90020,Definitely endangered,43.8028,46.2744
Heiban,90000,Vulnerable,10.8575,30.2371
Quichua (Cañar and Azuay),90000,Severely endangered,-2.6577,-78.8378
Mezquital Otomí,88789,Definitely endangered,20.4831,-99.217
Eastern Mazahua,88001,Definitely endangered,19.7129,-99.9515
Burushaski,87000,Vulnerable,35.909,74.2153
Central Otomí,84593,Definitely endangered,19.4661,-99.5944
Chokri,84000,Vulnerable,25.8691,94.7131
Sangtam,84000,Vulnerable,26.6032,94.9603
Ixil (Guatemala),83574,Vulnerable,15.4849,-91.0358
Achi',82640,Vulnerable,15.0845,-90.4888
Yem,81613,Vulnerable,7.6347,37.3205
Mao,81000,Vulnerable,25.5027,94.2681
Arbëresh,80000,Definitely endangered,40.9321,14.8645
Lari,80000,Definitely endangered,27.8585,54.8547
Páez,80000,Definitely endangered,2.8237,-76.3117
Quechua of Santiago del Estero,80000,Definitely endangered,-26.7848,-63.6767
Svan,80000,Definitely endangered,43.0207,42.3193
Tai Daeng,80000,Vulnerable,19.8833,104.6166
Taznatit,80000,Severely endangered,29.3413,0.3955
Razihi,75000,Definitely endangered,16.8834,43.2655
Wakhi,75000,Definitely endangered,37.1603,74.9047
Bishnupriya Manipuri Creole,72899,Vulnerable,24.297,92.4499
Acheron,70000,Severely endangered,10.809,30.2453
Maori,70000,Vulnerable,-38.4105,177.3632
Tai Neua,70000,Vulnerable,20.5166,104.3166
Bhadravahi,66918,Definitely endangered,33.5413,76.333
Kinnauri,65097,Definitely endangered,31.541,78.3764
Gallo-Sicilian,65000,Definitely endangered,38.0167,14.5994
Kurux (Bangladesh),65000,Vulnerable,25.8196,88.9672
Tz'utujil,63237,Definitely endangered,14.6394,-91.2301
Chamorro,62500,Vulnerable,13.4323,144.7338
Ashaninka (Peru),62468,Vulnerable,-10.6929,-74.3444
Chang,62000,Vulnerable,26.2934,94.9493
Kuna (Panama),61703,Vulnerable,9.5983,-79.6334
Churahi,61199,Definitely endangered,33.1835,76.5747
Nruanghmei,61000,Vulnerable,24.9661,93.5375
Rengma,61000,Vulnerable,25.958,94.2462
Faroese,60000,Vulnerable,62.0112,-6.7785
Northern Tujia,60000,Severely endangered,28.828,109.5904
Torwali,60000,Definitely endangered,35.5833,72.5
Chuj (Guatemala),59048,Vulnerable,15.8259,-91.4783
Kachari,59000,Definitely endangered,25.2844,93.2189
Scottish Gaelic,58552,Definitely endangered,58.1011,-6.7675
Sierra de Puebla Náhuatl,57189,Definitely endangered,19.6223,-97.8149
Limonese Creole,55000,Definitely endangered,9.9916,-83.0316
Kashubian,53000,Severely endangered,54.2267,18.1713
Khakas,52217,Definitely endangered,53.7746,90.3735
Parji,51216,Critically endangered,18.5629,82.8039
Arvanitika,50000,Severely endangered,38.1863,23.6096
Buryat (Cis-Baikal),50000,Severely endangered,52.7961,104.8809
Buryat (Manchuria),50000,Definitely endangered,49.8096,119.7509
Cuona Menba,50000,Vulnerable,26.8279,95.3623
Eastern Cham,50000,Definitely endangered,10.7833,108.0833
Hmar,50000,Vulnerable,24.577,93.3178
Huzhu Monguor,50000,Severely endangered,36.7608,102.4255
Paite,50000,Vulnerable,24.1968,93.3563
Quichua (Imbabura),50000,Definitely endangered,0.1757,-78.2006
Soqotri,50000,Severely endangered,12.5331,53.767
Southern Altay,50000,Definitely endangered,51.069,86.5942
Transylvanian Saxon,50000,Severely endangered,46.214,24.2413
Turoyo,50000,Severely endangered,37.405,41.3745
Võro-Seto,50000,Definitely endangered,57.8096,27.29
West Greenlandic,50000,Vulnerable,64.1681,-51.7236
Western Armenian (Turkey),50000,Definitely endangered,41.0213,28.9324
Zaramo,50000,Definitely endangered,-6.922,39.2409
Zenatiya,50000,Critically endangered,35.5702,1.8099
Papantla Totonac,49748,Definitely endangered,20.4477,-97.32
Wancho,49000,Vulnerable,26.9759,95.4656
Bhumji,47000,Vulnerable,21.8003,86.8139
Cosung (China),47000,Definitely endangered,22.6833,102.6666
Cosung (Viet Nam),47000,Definitely endangered,22.6166,102.75
Baheng (China),45000,Vulnerable,26.19,110.24
Lumun,45000,Definitely endangered,10.8387,30.0338
Quichua (Loja),45000,Severely endangered,-3.6236,-79.2388
Chamling,44093,Definitely endangered,27.0499,86.7329
Irish,44000,Definitely endangered,53.7876,-9.1845
Reshe,44000,Vulnerable,10.8791,4.6115
Sierra Otomí,43468,Vulnerable,20.1021,-97.622
Phuthi,43000,Definitely endangered,-29.3791,28.2838
Rarotongan,43000,Vulnerable,-21.2343,-159.7837
Khalaj,42100,Vulnerable,34.3751,50.3063
Dungan,41000,Definitely endangered,42.4518,78.4643
Kheza,41000,Vulnerable,25.6811,94.367
Jola-Kassa,40850,Vulnerable,13.1089,-15.8999
Sat?r,40260,Vulnerable,26.5541,87.918
Guaraní Boliviano,40000,Vulnerable,-20.1694,-63.8525
Gutob,40000,Vulnerable,18.7086,83.5839
Kheng,40000,Vulnerable,27.0786,91.0272
Laro,40000,Definitely endangered,10.7685,29.902
Minyong,40000,Vulnerable,28.2632,95.0537
Mru,40000,Severely endangered,21.7748,92.2741
Patani Malay,40000,Vulnerable,6.6482,100.0387
"Quechua of Cajatambo, Pasco and northern Junín",40000,Severely endangered,-10.6147,-76.506
Quichua (Napo),40000,Definitely endangered,-0.6371,-77.1459
Tangsa,40000,Vulnerable,27.4059,96.427
Tetserret,40000,Severely endangered,15.4907,6.2072
Awajun,39000,Vulnerable,-4.3464,-77.8271
Khiamngan,38000,Vulnerable,26.0518,95.1031
Ngile,38000,Severely endangered,10.7901,29.8635
Phunoi,37311,Vulnerable,21.6833,102.1
Lower Mixe,37000,Vulnerable,16.9616,-95.093
Maram,37000,Vulnerable,25.185,93.9715
Western Mari,36822,Severely endangered,56.3317,46.5545
Chepang,36807,Vulnerable,27.7552,84.8144
Chontal Tabasco,36514,Severely endangered,17.7607,-92.5936
Muji,36500,Definitely endangered,23.6,102.7333
Akatek (Guatemala),35763,Vulnerable,15.5724,-91.4218
Huichol,35724,Vulnerable,22.65,-103.5833
Romansh,35095,Definitely endangered,46.5777,9.6954
Apatani,35000,Vulnerable,27.5228,93.8177
Galo,35000,Vulnerable,28.1688,94.7433
Korwa,35000,Vulnerable,22.4922,84.1552
Shuar chicham,35000,Definitely endangered,-2.8826,-78.0303
Ticuna,35000,Definitely endangered,-4.3464,-70.0048
Wanka Quechua,35000,Severely endangered,-12.136,-75.2453
Sikuani,34614,Vulnerable,3.4256,-68.8183
Jakaltek (Guatemala),34038,Definitely endangered,15.6685,-91.7111
Liangmai,34000,Vulnerable,25.2794,93.6694
Zeme,34000,Vulnerable,25.5027,93.5595
Highland Mazatec,33859,Vulnerable,18.1307,-96.8436
Thangmi,33500,Definitely endangered,27.6969,86.0057
Nocte,33000,Vulnerable,27.1618,95.7952
Mayo,32869,Critically endangered,26.9114,-109.6271
Lauje,32000,Vulnerable,-0.4531,119.9816
Danuwar,31849,Severely endangered,26.9661,86.3223
Sirmaudi,31144,Critically endangered,30.9823,77.1569
Abaza,31000,Definitely endangered,44.1556,41.9368
Koch,31000,Definitely endangered,25.7603,90.3955
Amis,30000,Vulnerable,23.4456,121.4483
Biak,30000,Vulnerable,-0.3076,131.2207
Bumthang,30000,Vulnerable,27.492,90.7159
Burgenland Croatian,30000,Definitely endangered,47.8435,16.5179
Dzhidi,30000,Definitely endangered,33.5139,48.0102
Judeo-Berber (Israel),30000,Severely endangered,31.6767,34.5684
Kham,30000,Definitely endangered,28.4321,82.9635
Ladin,30000,Definitely endangered,46.5531,11.8597
Lepcha,30000,Definitely endangered,27.1153,88.4687
Maonan,30000,Vulnerable,24.8341,107.577
"Mok (Myanmar, Thailand)",30000,Definitely endangered,21.7333,99.7666
Moro,30000,Definitely endangered,10.8872,30.1904
Mulam,30000,Vulnerable,24.6341,108.2895
North Saami,30000,Definitely endangered,68.9099,22.9394
Quechua of Cajamarca,30000,Severely endangered,-7.1772,-78.673
Quichua (Pastaza),30000,Definitely endangered,-1.7575,-76.8603
Rushani,30000,Definitely endangered,37.8705,71.5979
Tagin,30000,Vulnerable,28.038,94.2022
Tialo,30000,Vulnerable,0.4888,120.8935
Tidikelt,30000,Critically endangered,26.8828,2.5488
Toba,30000,Definitely endangered,-25.958,-59.0625
Tundra Nenets,30000,Definitely endangered,67.5001,67.7856
Vojvodina Rusyn,30000,Definitely endangered,45.6351,19.1903
Wuse,30000,Vulnerable,24.878,109.1053
Agul,29399,Definitely endangered,41.7518,47.6875
Rutul,29383,Definitely endangered,41.5332,47.3181
Bateri,29000,Definitely endangered,34.9073,72.8675
Mzieme,29000,Vulnerable,25.6019,93.8891
Ghale,28989,Vulnerable,28.2501,84.718
Sierra Popoluca,28700,Vulnerable,18.245,-94.76
Kurux (Nepal),28615,Vulnerable,26.6032,87.2259
Deori,28000,Definitely endangered,27.1911,94.1528
Soyaltepec Mazatec,27524,Vulnerable,18.2499,-96.3995
Western Mazahua,27037,Definitely endangered,19.4372,-100.3552
Sibe,27000,Severely endangered,43.6599,81.3427
Isthmus Náhuatl,26632,Vulnerable,18.2209,-94.8382
Sunwar,26611,Vulnerable,27.3485,86.2337
Mancagne,26450,Vulnerable,12.7743,-15.6967
Gadaba,26262,Critically endangered,18.3858,82.7819
Banat Bulgarian,25000,Definitely endangered,45.4832,20.9069
Csángó Hungarian,25000,Severely endangered,46.7925,27.1911
Koda,25000,Vulnerable,22.1263,87.0776
Minhe Monguor,25000,Definitely endangered,36.4919,102.6452
Miskito (Honduras),25000,Vulnerable,15.3393,-84.6034
Olonetsian,25000,Definitely endangered,61.1273,32.8765
Saek,25000,Definitely endangered,19.3166,104.7833
Sioux,25000,Vulnerable,43.0588,-102.5244
Tamazight (Beni Iznassen),25000,Definitely endangered,34.7506,-2.1917
Tsakhur,25000,Definitely endangered,41.6523,46.9775
Warao,25000,Definitely endangered,8.6027,-61.3806
Majhi,24664,Severely endangered,27.9208,83.5082
Jone,24000,Definitely endangered,34.5947,103.5653
Andi,23729,Definitely endangered,42.7308,46.2963
Guambiano,23462,Definitely endangered,2.6138,-76.3906
Anal,23000,Vulnerable,24.1517,93.9385
Hawrami,23000,Definitely endangered,35.4259,46.2551
Juang,23000,Definitely endangered,21.0742,85.6164
Tiwa,23000,Definitely endangered,25.7801,92.5927
Embera (Panama),22485,Vulnerable,8.1179,-77.7429
Ediamat,22025,Vulnerable,12.2621,-16.5289
Mara,22000,Definitely endangered,23.5237,92.9003
Maring,22000,Vulnerable,24.6769,94.3835
Polci cluster,22000,Definitely endangered,9.9742,9.3328
Sarikoli,22000,Definitely endangered,37.9463,75.1272
Krongo,21688,Definitely endangered,10.585,29.8883
Ashtiani,21000,Definitely endangered,34.4861,51.0562
Khunsari,21000,Definitely endangered,32.8795,51.6796
Semnani,21000,Definitely endangered,34.8679,53.4924
Plains Cree,20933,Vulnerable,56.3544,-113.8345
Higher Reservoir Mazatec,20665,Vulnerable,18.158,-96.7045
Chilchotla Mazatec,20585,Vulnerable,18.2934,-96.7029
"Zapotec of the Valleys, middle northwest",20448,Definitely endangered,17.05,-96.6333
Aluo,20000,Definitely endangered,25.9368,102.1839
Bangni,20000,Vulnerable,28.0331,93.0651
Bru,20000,Definitely endangered,15.3174,105.4938
Cho-ca-nga-ca-kha,20000,Definitely endangered,27.4107,91.2277
Crimean Tatar (Dobruja),20000,Severely endangered,43.9414,28.3062
Dhimal,20000,Severely endangered,26.6192,87.4635
Griko (Salento),20000,Severely endangered,40.1578,18.2208
Kaiowá Guarani,20000,Vulnerable,-21.5812,-55.0759
Karelian (Karelia),20000,Definitely endangered,63.0474,33.4616
Khoirao,20000,Vulnerable,25.2198,94.1583
Manchad,20000,Vulnerable,32.6578,77.5415
Mariupolitan Greek,20000,Severely endangered,47.1364,37.5444
Padam,20000,Vulnerable,28.2463,95.3668
Pemon (Venezuela),20000,Vulnerable,5.1347,-61.853
Tacenwit,20000,Vulnerable,36.5703,2.2892
Tangwang,20000,Definitely endangered,35.7643,102.8979
Western Neo-Aramaic,20000,Definitely endangered,33.8339,36.5405
Yaghnobi,20000,Definitely endangered,38.5632,68.4475
Yaw,20000,Definitely endangered,21.6,94.8333
Yeyi,20000,Definitely endangered,-19.4562,23.2031
Boro,19878,Definitely endangered,10.3581,35.0024
Sorbian,19500,Definitely endangered,51.5001,14.4744
Biete,19000,Definitely endangered,25.6514,93.2409
Hrangkhol,19000,Vulnerable,24.1467,92.3071
Terena,19000,Severely endangered,-20.2841,-55.4638
Kati,18700,Definitely endangered,35.3845,71.3177
Kulung,18686,Vulnerable,27.518,86.9375
Kaingang,18500,Definitely endangered,-28.1495,-52.4707
Lowland Mazatec,18389,Vulnerable,18.0801,-96.5236
Vafsi,18000,Definitely endangered,34.0867,49.8861
Bassari,17910,Vulnerable,12.4419,-12.6617
Bayot,17150,Vulnerable,12.4218,-16.4149
Pochuri,17000,Vulnerable,25.6712,94.779
Tamahaq (Libya),17000,Definitely endangered,24.9611,10.1733
Swampy Cree,16685,Vulnerable,53.9849,-97.7626
Koraga,16665,Critically endangered,11.6952,75.6738
Oyda,16597,Vulnerable,5.9438,36.6503
Pangvali,16285,Critically endangered,33.4589,76.9152
Shipibo-Conibo,16085,Definitely endangered,-8.4289,-74.6411
Amba,16000,Vulnerable,0.6737,30.198
Tsez,15356,Definitely endangered,42.2376,45.8734
Bonan,15000,Definitely endangered,36.089,102.843
Chrau,15000,Definitely endangered,10.5634,107.1496
Dari,15000,Definitely endangered,31.8402,54.1625
Dzala,15000,Vulnerable,27.7078,91.3623
Ersu,15000,Definitely endangered,28.7778,102.1277
Gangte,15000,Definitely endangered,24.1968,93.587
Gurdu-Mbaaru,15000,Severely endangered,9.7415,10.4534
Ha-lung Tibetan,15000,Definitely endangered,27.6831,87.8256
Hlersu,15000,Vulnerable,24.3789,102.046
Juk,15000,Definitely endangered,15.3333,106.85
Kwama,15000,Vulnerable,9.5465,34.2059
Laemae,15000,Severely endangered,26.4179,98.7758
Lavua,15000,Definitely endangered,18.4483,98.1848
Macushi (Brazil),15000,Vulnerable,3.7765,-61.1279
Nahali,15000,Definitely endangered,21.4735,74.0258
Naluo,15000,Vulnerable,26.5895,100.8506
Nyoe,15000,Definitely endangered,14.9102,104.6049
O'odham (Akimel),15000,Definitely endangered,33.059,-112.0479
O'odham (Tohono),15000,Definitely endangered,31.9186,-111.8798
Paiwan,15000,Vulnerable,22.4313,120.7809
Rao,15000,Definitely endangered,25.871,107.0476
Semai,15000,Severely endangered,4.3039,101.445
Shatt,15000,Severely endangered,10.8117,29.7235
Siwi,15000,Definitely endangered,29.1905,25.5322
Tagargrent,15000,Severely endangered,30.9587,4.0209
Tayurayt,15000,Vulnerable,36.5648,1.9061
Totoli,15000,Vulnerable,0.8953,120.2838
Aruaco,14799,Vulnerable,10.0986,-73.5424
Yakkha,14648,Critically endangered,27.1908,87.3358
Kuruba,14613,Critically endangered,11.4369,76.3549
Tuamotuan,14400,Definitely endangered,-14.9354,-147.7455
Katla,14208,Definitely endangered,11.7329,29.3939
Garífuna (Belize),14061,Vulnerable,17.1833,-88.5833
Thulung,14034,Definitely endangered,27.4534,86.6423
Bawm,14000,Definitely endangered,22.1874,92.6477
Guajajara,14000,Vulnerable,-4.8282,-46.8017
Niuean,14000,Definitely endangered,-19.0491,-169.8706
Uhunduni,14000,Vulnerable,-4.2054,137.031
Gusilay,13950,Vulnerable,12.7019,-16.4382
Xavante,13303,Vulnerable,-14.4832,-53.5305
Dondo,13000,Vulnerable,0.747,120.4266
Khampti,13000,Vulnerable,27.8827,96.5093
Nalu,13000,Definitely endangered,10.9523,-14.7629
Tagoi,13000,Severely endangered,10.8252,30.1657
Karko,12986,Definitely endangered,11.964,29.4186
San Mateo del Mar Huave,12667,Vulnerable,16.2,-94.9833
Q'eqchi' (Belize),12366,Vulnerable,16.8107,-88.3999
Kadaru,12360,Definitely endangered,12.1789,30.2398
Mazatlán Mazatec,12340,Vulnerable,18.033,-96.8999
Badiaranke,12205,Severely endangered,12.4043,-13.5736
Alune,12000,Vulnerable,-3.0637,128.3752
Bangani,12000,Critically endangered,29.8692,79.0686
Chamalal,12000,Definitely endangered,42.5712,46.0739
Chru,12000,Vulnerable,11.4666,109.05
Hill Miri,12000,Definitely endangered,27.7078,94.0374
Jinuo,12000,Definitely endangered,21.4758,101.3111
Muya,12000,Vulnerable,30.2593,101.7497
Samei,12000,Severely endangered,25.0756,103.0133
Tajio,12000,Vulnerable,-0.0954,120.0173
Tobada',12000,Extinct,-2.019,119.4708
Yurt Tatar,12000,Definitely endangered,46.3943,48.3288
Yaqui (Mexico),11806,Vulnerable,27.6436,-110.296
Ch'orti' (Guatemala),11734,Definitely endangered,14.968,-89.2905
Filomeno Mata Totonac,11710,Vulnerable,20.198,-97.7022
Northern Totonac,11529,Critically endangered,20.2741,-97.955
Komo,11500,Definitely endangered,9.0804,34.0905
Tuwuli,11400,Vulnerable,7.0572,0.3845
Poqomam,11273,Definitely endangered,14.6455,-89.7274
Idu,11101,Definitely endangered,28.6496,95.8419
Kari'ña (Venezuela),11000,Severely endangered,8.4941,-64.0942
Machiguenga,11000,Definitely endangered,-11.8888,-72.9052
Piaroa (Venezuela),11000,Vulnerable,4.5435,-66.7089
Tuvaluan,11000,Definitely endangered,-8.5049,179.187
Waunana (Colombia),11000,Vulnerable,4.2806,-77.0581
Noon,10925,Vulnerable,14.8173,-16.5234
Sampang,10810,Vulnerable,27.257,86.9444
Central Alaskan Yupik (2),10400,Vulnerable,61.4387,-160.4882
Central Alaskan Yupik (Nuniak Island),10400,Vulnerable,59.8889,-166.289
Bukiyip,10304,Vulnerable,-3.4256,143.0886
Saparua,10216,Definitely endangered,-3.5757,128.6464
Darai,10210,Severely endangered,27.9264,84.331
Bandial,10125,Vulnerable,12.5317,-16.1553
Bongo,10084,Definitely endangered,6.1405,31.7999
Northwestern Tarahumara,10031,Vulnerable,27.9169,-107.0552
Algherese Catalan,10000,Definitely endangered,40.5638,8.3276
Aragonese,10000,Definitely endangered,42.2935,-0.4394
Baima,10000,Vulnerable,33.1531,103.8696
Bukharic,10000,Definitely endangered,39.8043,64.4224
Bunun,10000,Vulnerable,23.3624,121.1077
Burunge,10000,Vulnerable,-4.7297,35.7769
Chayahuita,10000,Definitely endangered,-5.3425,-76.6955
Cherokee (Oklahoma),10000,Definitely endangered,36.7544,-98.3569
Dalecarlian,10000,Definitely endangered,61.2385,14.0295
"Huitoto (Colombia, Peru)",10000,Definitely endangered,-3.0308,-71.8066
Hulaula (Israel),10000,Severely endangered,32.2128,34.9118
Karang,10000,Vulnerable,8.3093,15.3588
Karelian (Tver),10000,Definitely endangered,58.1533,36.101
Karone,10000,Vulnerable,12.7769,-16.7733
Kryz,10000,Severely endangered,41.1455,48.164
"Kurripako (Colombia, Venezuela)",10000,Definitely endangered,2.3723,-67.5659
Kurtöp,10000,Vulnerable,27.7127,90.9667
Lamgang,10000,Critically endangered,24.2569,94.0759
Miqie,10000,Definitely endangered,26.9053,100.8506
Mojo,10000,Definitely endangered,-14.966,-65.1708
Muot,10000,Critically endangered,8.0932,93.4963
Naiki,10000,Critically endangered,19.8287,78.2281
Ñandeva Guarani,10000,Vulnerable,-22.0652,-54.7558
Ngwaba,10000,Severely endangered,9.9904,12.81
North Frisian,10000,Severely endangered,54.7341,8.7478
Northern Khanty,10000,Definitely endangered,63.7047,66.676
Nyah Kur,10000,Definitely endangered,15.6587,101.5068
Nyenkha,10000,Vulnerable,27.4595,90.4119
Orang Hulu,10000,Definitely endangered,1.8871,103.984
Otoro,10000,Severely endangered,11.1864,30.6353
Solon,10000,Definitely endangered,48.166,119.4873
Southern Tujia,10000,Severely endangered,28.258,109.9398
Taba,10000,Vulnerable,0.0659,127.4084
Talu,10000,Vulnerable,26.5623,102.8506
Tamazight (Tunisia),10000,Severely endangered,36.0313,9.8767
Tayal,10000,Vulnerable,24.5458,121.3591
Temein,10000,Severely endangered,11.8377,29.4625
Temiar,10000,Definitely endangered,4.9493,101.4113
Trukhmen,10000,Definitely endangered,44.4886,44.5385
Vidunda,10000,Vulnerable,-6.8664,37.304
Kogui,9911,Vulnerable,10.8548,-74.0258
Paloor,9680,Vulnerable,14.7801,-16.8035
Awakatek (Guatemala),9613,Vulnerable,15.3429,-91.312
Choctaw (Louisiana),9500,Vulnerable,31.6822,-92.1252
Choctaw (Mississipi),9500,Vulnerable,32.7713,-89.1163
Choctaw (Oklahoma),9500,Vulnerable,34.1472,-94.81
Gawar-Bati,9500,Definitely endangered,35.158,71.4083
Taruang,9332,Vulnerable,28.12,95.88
Khaling,9288,Definitely endangered,27.5781,86.7163
Western Tarahumara,9196,Vulnerable,27.3361,-108.5007
Nunavimmiutitut,9105,Vulnerable,58.1665,-68.3605
Woods Cree,9095,Vulnerable,55.1711,-102.9061
Phula (Viet Nam),9046,Definitely endangered,22.7833,105.4666
Dol-po,9000,Definitely endangered,29.2193,83.0676
Helong,9000,Severely endangered,-10.1905,123.5247
Lisela,9000,Vulnerable,-3.2392,127.0239
Motuo Menba,9000,Definitely endangered,28.664,94.0347
Panamahka,9000,Vulnerable,14.2856,-84.5947
Zuni,9000,Vulnerable,35.082,-108.76
Mopán (Belize),8980,Severely endangered,16.2449,-88.8654
Tulishi,8628,Severely endangered,11.5984,29.0917
Central Cuicatec,8621,Vulnerable,17.8,-96.961
Ts'amay,8621,Definitely endangered,5.4382,37.2463
Phalura,8600,Definitely endangered,35.7264,71.7434
Northern Popoloc,8597,Vulnerable,18.6818,-97.658
Ixcatlán Mazatec,8593,Vulnerable,18.1447,-96.4855
Patla-Chicontla Totonac,8590,Severely endangered,20.1644,-97.6927
Toram,8456,Severely endangered,11.1581,19.6023
Northwestern Tlapanec,8409,Vulnerable,17.5595,-98.9332
Dene,8195,Vulnerable,56.4807,-109.4127
Micmac (Massachusetts),8145,Definitely endangered,42.3589,-71.0578
Argobba,8000,Critically endangered,10.5958,39.9792
Austral dialects,8000,Definitely endangered,-23.3775,-149.4909
Belanda Bor,8000,Definitely endangered,6.4954,27.7404
Feroge,8000,Vulnerable,8.5049,25.7189
Hachij?,8000,Definitely endangered,33.11,139.7891
Inga,8000,Severely endangered,1.1658,-77.0011
Kanga,8000,Severely endangered,10.844,29.4708
Lajia,8000,Definitely endangered,23.7439,110.0526
Lakha,8000,Definitely endangered,27.5898,90.3735
Mbya Guarani (Paraguay),8000,Definitely endangered,-26.5099,-55.2832
Mundurukú,8000,Vulnerable,-8.1027,-57.3486
Ojibwe,8000,Severely endangered,46.0706,-93.6677
Quichua (Salasaca),8000,Definitely endangered,-1.3511,-78.6511
Rongpo,8000,Vulnerable,30.7229,79.7387
Sanyi,8000,Severely endangered,24.9262,102.5134
Temuan,8000,Severely endangered,3.3709,101.984
Tingal,8000,Definitely endangered,12.238,31.1215
Wampis,8000,Vulnerable,-3.4476,-77.7941
Wunai Bunu,8000,Definitely endangered,24.4146,107.8378
Yanesha,8000,Severely endangered,-10.3743,-75.2343
Mam (Mexico),7977,Severely endangered,17.3661,-93.5334
Pana,7800,Definitely endangered,13.165,-3.4277
Macushi (Guyana),7750,Vulnerable,3.6888,-59.4799
Chukchi,7742,Severely endangered,67.6248,176.1767
Cabécar,7622,Vulnerable,9.9012,-83.6844
Awa Cuaiquer,7500,Critically endangered,1.4939,-78.5742
Lishana Deni (Israel),7500,Severely endangered,31.7748,35.1013
Central Pame,7399,Vulnerable,21.9208,-99.3741
Puinave,7377,Definitely endangered,4.434,-68.1591
Mebengokre,7266,Vulnerable,-6.5569,-52.4707
Tunebo,7231,Definitely endangered,6.4463,-72.0483
Quechua of Peruvian Amazonia,7200,Vulnerable,-2.3723,-74.1137
Asur,7000,Definitely endangered,22.4719,84.9023
Bashkardi,7000,Definitely endangered,28.5169,57.7551
Burji,7000,Vulnerable,2.1857,37.9248
Choyi,7000,Definitely endangered,30.8519,99.6659
Gazi,7000,Definitely endangered,32.8036,51.6211
Guichong,7000,Vulnerable,30.8148,101.7021
Karagash,7000,Definitely endangered,47.2643,47.2412
Natanzi,7000,Severely endangered,33.452,51.3006
Nayini,7000,Severely endangered,32.8519,53.1573
Parya,7000,Severely endangered,38.5094,68.0932
Segeju,7000,Severely endangered,-4.8173,39.0783
Sivandi,7000,Definitely endangered,29.9168,51.5945
Soi,7000,Definitely endangered,31.6533,55.6787
Tucano (Brazil),7000,Vulnerable,0.1757,-67.2363
Wapishana (Guyana),7000,Vulnerable,2.3065,-59.6997
Yulu,7000,Vulnerable,8.3854,24.1754
Zhaba,7000,Vulnerable,31.4,100.4734
Sakapultek,6973,Definitely endangered,14.9752,-91.0527
Chara,6932,Vulnerable,6.479,36.3647
Kosraean,6900,Severely endangered,5.322,162.9904
Waunana (Panama),6882,Severely endangered,8.2984,-78.1018
San Francisco del Mar Huave,6874,Critically endangered,16.3333,-94.5166
Northern East Cree,6870,Vulnerable,53.6916,-78.8011
Micmac (Canada),6850,Vulnerable,45.9646,-60.6172
Northern Tepehuán,6802,Definitely endangered,26.4258,-107.2683
Miju,6700,Vulnerable,28.1155,96.2896
Rio Grande Keresan,6685,Definitely endangered,35.5147,-106.3655
Western Mazatec,6639,Vulnerable,18.1351,-96.9057
Bussa,6624,Vulnerable,5.7225,37.1406
Beli,6600,Definitely endangered,6.4736,29.2675
Chesu,6600,Definitely endangered,24.4211,102.0459
Thuri,6600,Vulnerable,8.4397,25.4333
Karata,6574,Definitely endangered,42.5874,46.3348
Saulteau,6558,Vulnerable,50.5573,-98.6562
Kum?le,6533,Severely endangered,27.788,84.548
Lower Northwestern Otomí,6509,Vulnerable,20.1865,-100.1469
Dimme,6501,Vulnerable,5.9548,36.2988
Chiquitano (Bolivia),6500,Definitely endangered,-16.5835,-61.6113
Tumtum,6500,Severely endangered,10.477,30.4321
Bezhta,6461,Definitely endangered,42.1369,46.1508
Thakali,6441,Vulnerable,28.7146,83.6478
Dongotono,6219,Vulnerable,4.965,35.321
Mawé,6219,Vulnerable,-3.8642,-56.7773
Shor,6210,Severely endangered,53.0544,87.7478
Central Tlapanec,6191,Vulnerable,17.2624,-98.7482
Oji-Cree,6110,Vulnerable,53.8141,-94.8977
Keiga,6072,Severely endangered,11.3184,29.696
Ampibabo Lauje,6000,Vulnerable,0.3295,120.1904
Cashinahua (Brazil),6000,Vulnerable,-9.2603,-71.5304
Geji cluster,6000,Severely endangered,10.196,9.5581
Mbya Guarani (Brazil),6000,Vulnerable,-30.1451,-50.625
Moklen,6000,Definitely endangered,8.1953,98.3036
Nauruan,6000,Severely endangered,-0.53,166.9221
Nheengatu / Yeral (Brazil),6000,Severely endangered,-0.4833,-67.0166
Parachi,6000,Definitely endangered,34.4658,68.637
Quechua of San Martín,6000,Severely endangered,-6.5336,-76.4428
Sawkna,6000,Critically endangered,27.252,17.7539
Sulung,6000,Definitely endangered,27.839,92.8784
Tindi,6000,Definitely endangered,42.466,46.1453
Western Apache,6000,Definitely endangered,33.2563,-110.4637
Yanomami (Brazil),6000,Vulnerable,3.0746,-63.457
Yazgulami,6000,Severely endangered,38.1982,71.4276
Chantyal,5912,Definitely endangered,28.4493,83.4054
Mortlockese,5904,Definitely endangered,5.5811,153.5668
Baníwa do Içana,5811,Vulnerable,1.2743,-68.291
"Akawaio (Guyana, Venezuela)",5800,Definitely endangered,5.3753,-60.5126
Akhvakh,5793,Definitely endangered,42.472,46.3238
Veps,5753,Severely endangered,60.3269,34.8046
Qikiqtaaluk nigiani,5740,Vulnerable,63.7577,-68.5178
Sipakapense,5687,Definitely endangered,15.2121,-91.6335
Bribri (Costa Rica),5647,Vulnerable,9.5596,-83.3073
Bainouk-Gunyaamolo,5635,Vulnerable,12.7421,-16.1141
Kwatay,5625,Severely endangered,12.4204,-16.7596
Baheng (Viet Nam),5569,Vulnerable,22.8166,106.35
Central Zoque,5500,Definitely endangered,17.0965,-93.2095
Dameli,5500,Severely endangered,35.578,71.8684
Sak (Bangladesh),5500,Severely endangered,21.5041,92.2055
Yidgha,5500,Definitely endangered,36.0024,71.6006
Southeastern Tarahumara,5406,Vulnerable,26.0891,-106.9645
Chimané,5300,Vulnerable,-15.2629,-66.8518
Dilling,5295,Definitely endangered,12.0178,29.663
San Dionisio del Mar Huave,5165,Definitely endangered,16.3166,-94.75
Lafofa,5140,Severely endangered,10.3716,30.6243
Akeu,5000,Definitely endangered,21.5833,101.0166
Anung (China),5000,Critically endangered,26.7368,98.7766
Bagvalal,5000,Definitely endangered,42.5247,46.192
Bambassi,5000,Definitely endangered,9.7469,34.7662
Barí,5000,Vulnerable,9.0261,-73.2678
Bartangi,5000,Severely endangered,38.048,71.8286
Bokar,5000,Vulnerable,28.8735,94.3807
Brokpa,5000,Definitely endangered,27.3766,91.9981
Creek,5000,Definitely endangered,35.6319,-95.9616
Cubeo (Colombia),5000,Vulnerable,1.5,-70.5
Dagur (Hailar),5000,Definitely endangered,48.6111,119.7949
Damal,5000,Vulnerable,-4.2806,137.0324
Dhaiso,5000,Definitely endangered,-5.0745,38.4741
Gorum,5000,Definitely endangered,18.667,83.0346
Guarayu,5000,Definitely endangered,-15.919,-62.8747
Gutnish,5000,Definitely endangered,57.3027,18.5284
Hopi,5000,Vulnerable,35.8721,-110.6205
Ilue,5000,Critically endangered,4.9185,8.2397
Jibbali,5000,Severely endangered,18.0623,52.4267
Kalasha,5000,Severely endangered,35.6684,71.7201
Kami,5000,Severely endangered,-6.8937,37.1337
Kathu,5000,Definitely endangered,24.136,105.249
Khojki,5000,Severely endangered,23.6193,58.5653
Khwe,5000,Definitely endangered,-18.271,21.4892
Kom,5000,Definitely endangered,24.0414,93.6639
Korandje,5000,Severely endangered,29.4049,-3.2605
Lachi,5000,Definitely endangered,22.5,104.1333
Mak,5000,Definitely endangered,25.5532,107.3809
Manihiki,5000,Definitely endangered,-10.4,-161
Megleno-Romanian,5000,Severely endangered,41.1042,22.2025
Miji,5000,Definitely endangered,27.3351,92.5735
Mo'ang (China),5000,Definitely endangered,23.8421,103.9116
Mo'ang (Viet Nam),5000,Definitely endangered,22.7833,105.3666
Molise Croatian,5000,Severely endangered,41.8787,14.7065
Moroccan Judeo-Arabic (Morocco),5000,Severely endangered,34.0435,-5.0097
Namuyi,5000,Vulnerable,28.0727,101.9565
Padoe,5000,Vulnerable,-2.6467,121.2615
Patamona (Guyana),5000,Vulnerable,4.5873,-59.8095
Pu,5000,Critically endangered,8.2549,93.1022
Pume,5000,Definitely endangered,6.7518,-68.247
Singpho,5000,Definitely endangered,27.5569,96.7456
Turi,5000,Definitely endangered,21.8411,87.2973
Udi (Azerbaijan),5000,Severely endangered,41.0689,47.4609
Yecuana (Venezuela),5000,Vulnerable,4.8501,-64.5117
Jirel,4919,Definitely endangered,27.6419,86.2123
Dolgan,4865,Definitely endangered,71.3851,97.3388
Romani (Colombia),4858,Vulnerable,,
Tsum,4786,Definitely endangered,28.4723,85.008
Northern Tlapanec,4771,Vulnerable,17.4203,-98.7814
Taroko,4750,Vulnerable,24.0916,121.5218
Kivallirmiutut,4675,Vulnerable,61.0982,-94.1201
Puebla Mazatec,4660,Vulnerable,18.476,-96.8351
Zapotec of Petapa,4613,Definitely endangered,16.8333,-95.1166
Dungmali,4609,Definitely endangered,27.1874,87.1902
Saryg Yugur,4600,Severely endangered,39.2747,98.8439
Qikiqtaaluk uannangani,4550,Vulnerable,69.3878,-81.615
Afitti,4512,Severely endangered,12.4419,30.7534
Nomatsiguenga,4500,Severely endangered,-11.3292,-74.3664
Piapoko,4500,Definitely endangered,4.0396,-68.0712
Tokelauan,4500,Severely endangered,-9.1699,-171.8206
Wotu,4500,Vulnerable,-2.6303,120.888
Wambule,4471,Vulnerable,27.1746,86.4363
Southern East Cree,4455,Vulnerable,50.587,-73.6365
Arbore,4441,Definitely endangered,5.069,36.892
Ebang,4412,Severely endangered,11.313,30.5886
Tafi,4400,Vulnerable,6.73,0.4421
Puma,4310,Severely endangered,26.9692,86.9004
Gyele,4280,Definitely endangered,2.2241,9.8986
Bwisi,4248,Definitely endangered,-3.5572,11.4477
Eastern Montagnais,4180,Vulnerable,50.2136,-66.193
Atikamekw,4155,Vulnerable,47.2104,-74.3827
Western Zoque,4100,Vulnerable,16.9063,-91.7333
Acoma-Laguna,4000,Definitely endangered,34.8964,-107.5816
Aka,4000,Definitely endangered,27.1666,92.6312
Baga Manduri,4000,Definitely endangered,10.0986,-14.0405
Baga Sitemu,4000,Severely endangered,10.1094,-14.1586
Botlikh,4000,Definitely endangered,42.6602,46.2222
Bunan,4000,Definitely endangered,32.7503,76.2451
Cashinahua (Peru),4000,Definitely endangered,-10.3581,-71.5869
Cha'palaa,4000,Definitely endangered,0.9386,-79.0055
Evenki (Manchuria),4000,Severely endangered,50.34,123.43
Gazhuo,4000,Definitely endangered,24.0959,102.5463
Godoberi,4000,Definitely endangered,42.643,46.1027
"Kari'ña (Guyana, Suriname)",4000,Severely endangered,6.8828,-60.2929
Lishan Didan (Israel),4000,Severely endangered,32.0383,34.7827
Maleng,4000,Definitely endangered,18.0166,105
Napu,4000,Vulnerable,-1.2882,120.2536
Rahambuu,4000,Vulnerable,-3.1898,121.0858
Shingsaba,4000,Vulnerable,27.7163,87.4731
Sinkiang Dagur,4000,Definitely endangered,46.7737,83.0017
Taa,4000,Definitely endangered,-24.1367,20.1049
Tennet,4000,Vulnerable,4.8611,33.2226
Wapishana (Brazil),4000,Definitely endangered,2.8113,-61.2377
Yagua,4000,Definitely endangered,-3.3598,-72.3779
Yanomám,4000,Vulnerable,3.3818,-63.8085
Yanomami (Venezuela),4000,Vulnerable,2.5918,-64.7314
Younuo Bunu,4000,Definitely endangered,25.1463,106.5405
Zenaga (Mauritania),4000,Severely endangered,17.3086,-13.0078
Baghati,3976,Critically endangered,31.194,77.0471
Bharmauri,3976,Definitely endangered,32.4912,76.8383
Uspantek,3971,Vulnerable,15.3475,-90.8684
Khang Quang Lam,3921,Severely endangered,22.0333,102.6666
Konni,3800,Vulnerable,10.3311,-1.6973
Tocho,3800,Severely endangered,10.8764,30.1135
Mixtec of the Puebla-Oaxaca border,3791,Definitely endangered,18.1333,-97.6833
Nupri,3776,Definitely endangered,28.6384,84.6079
Ayoreo,3700,Definitely endangered,-18.719,-59.6228
Moyon,3700,Definitely endangered,24.4171,94.378
Utsat,3700,Definitely endangered,18.2727,109.3871
Nayi,3656,Vulnerable,7.2698,36.1724
Mussau-Emira,3651,Definitely endangered,-1.4774,149.6392
Narim,3623,Definitely endangered,4.9048,34.2224
Garífuna (Guatemala),3564,Vulnerable,15.8268,-88.7506
Nachiring,3553,Severely endangered,27.4144,86.7521
Eastern Popoloc,3544,Vulnerable,18.3322,-97.3471
Nding,3513,Critically endangered,10.4121,30.6024
Anung (Myanmar),3500,Severely endangered,27.2,98.6333
Camsá,3500,Definitely endangered,0.8788,-76.7724
Crow,3500,Definitely endangered,45.5963,-107.4613
Sak (Myanmar),3500,Vulnerable,21.2333,93.0761
Shwai,3500,Critically endangered,11.3184,30.4156
Wano,3500,Definitely endangered,-3.5463,137.9058
Northwestern Ojibwe,3465,Vulnerable,52.0016,-95.4274
Bakpinka,3416,Critically endangered,5.3644,8.2397
Morokodo,3400,Severely endangered,6.0313,29.7949
Eloxochitlán Mazatec,3384,Vulnerable,18.1754,-96.8765
Menik,3375,Definitely endangered,12.7528,-12.2717
Teribe (Panama),3305,Definitely endangered,9.4472,-82.5166
Tima,3305,Severely endangered,11.7033,29.1934
Mursi,3278,Vulnerable,5.5831,36.5075
Pendau,3200,Vulnerable,0.1922,120.0091
Ayautla Mazatec,3192,Vulnerable,18.019,-96.7441
Yucatec,3155,Definitely endangered,17.0922,-89.1221
Sayultec,3150,Definitely endangered,17.8816,-94.9597
Eastern Tlapanec,3088,Vulnerable,17.8135,-98.604
Juhur (Caucasus),3016,Definitely endangered,42.0044,48.2409
Awjila,3000,Severely endangered,26.6278,24.5214
Baleasang,3000,Definitely endangered,-0.0494,119.685
Benga,3000,Definitely endangered,0.9997,9.8657
Besoa,3000,Vulnerable,-1.7163,120.4211
Boni,3000,Definitely endangered,-0.8294,40.8142
Bonjo,3000,Severely endangered,1.7712,17.9598
Brokshat,3000,Definitely endangered,34.6478,76.4978
Budukh,3000,Severely endangered,41.1207,48.3233
Dahaalik,3000,Critically endangered,15.6917,40.0671
East Greenlandic,3000,Definitely endangered,65.6061,-37.6858
Eastern Khanty,3000,Definitely endangered,61.2491,74.5092
Fyem,3000,Severely endangered,9.6332,8.8632
Geta?,3000,Severely endangered,18.2293,82.727
Gura,3000,Severely endangered,10.075,6.8499
Harsusi,3000,Definitely endangered,19.9372,56.2637
Hozo,3000,Definitely endangered,9.3352,34.53
Jemez,3000,Vulnerable,35.6151,-106.7242
Kamara,3000,Definitely endangered,9.0858,-2.2576
Kapingamarangi,3000,Severely endangered,1.0828,154.8081
Koitabu,3000,Vulnerable,-9.346,147.1179
Kuk,3000,Definitely endangered,6.4326,10.2365
Lai,3000,Definitely endangered,24.4871,105.216
Limirong Tibetan,3000,Definitely endangered,29.9164,81.7617
Lishanid Noshan (Israel),3000,Severely endangered,31.7188,34.7772
Lude,3000,Severely endangered,61.5867,33.6813
"Mbya Guarani (Argentina, Uruguay)",3000,Severely endangered,-29.6116,-57.4804
"Mohawk (Akwesasne, St. Regis)",3000,Definitely endangered,45.0033,-74.6497
Nanay,3000,Severely endangered,49.3537,136.5243
Palu'e,3000,Definitely endangered,-8.3242,121.7106
Panare,3000,Vulnerable,6.5445,-66.4233
Pilagá,3000,Vulnerable,-25.4035,-58.6669
Pitjantjatjara,3000,Vulnerable,-26.0719,129.9517
Pukur,3000,Definitely endangered,10.4013,-14.4799
Rotuman,3000,Vulnerable,-12.5063,177.0776
Savi,3000,Definitely endangered,35.2085,71.845
Sherdukpen,3000,Vulnerable,27.1935,92.351
Shira Yugur,3000,Severely endangered,39.1002,99.2065
Takahanyilang,3000,Critically endangered,6.85,93.8726
U,3000,Definitely endangered,23.4844,99.8404
Ulithian,3000,Severely endangered,10.0229,139.6801
Waima'a,3000,Definitely endangered,-8.4995,126.3372
Warlpiri,3000,Vulnerable,-20.8177,131.6601
Yukpa,3000,Vulnerable,9.7956,-72.9382
Western Montagnais,2980,Vulnerable,48.9635,-68.5729
Waiwai (Brazil),2916,Vulnerable,-0.7909,-58.2714
Jersey French,2874,Severely endangered,49.2211,-2.1368
Bahing,2765,Definitely endangered,27.3126,86.5571
Stoney,2765,Vulnerable,51.161,-114.8533
Southwestern Tepehuan,2756,Vulnerable,22.8349,-105.7276
Northern Mansi,2746,Severely endangered,62.6539,63.1494
Bisu,2740,Definitely endangered,19.715,99.6789
Wari,2721,Definitely endangered,-11.7275,-65.0061
Pakan,2700,Definitely endangered,23.7447,105.2235
Yami,2700,Vulnerable,22.0512,121.5403
Ko,2683,Critically endangered,10.6714,30.8386
Yuracaré,2675,Definitely endangered,-16.6888,-65.4345
Aimol,2643,Critically endangered,24.4971,93.6145
Kohi,2641,Vulnerable,27.3607,86.8661
Chatino of the western lowlands,2640,Definitely endangered,16.3049,-97.5466
Bolo,2627,Definitely endangered,-10.5526,14.9633
Logol,2600,Severely endangered,10.8521,30.6463
Sila,2600,Definitely endangered,22.3094,102.041
Pisaflores Tepehua,2578,Vulnerable,20.6883,-98.0125
Xerente,2569,Severely endangered,-9.3356,-48.2227
Bribri (Panama),2521,Severely endangered,9.4813,-82.6174
Achuar,2500,Definitely endangered,-2.8991,-77.4316
Bai,2500,Definitely endangered,8.0592,25.5102
Banka,2500,Definitely endangered,11.4261,-5.6744
Culina (Peru),2500,Definitely endangered,-9.6224,-70.7958
Gadang,2500,Definitely endangered,10.3473,17.2485
Khinalug,2500,Severely endangered,41.1579,48.0706
Laomian (China),2500,Definitely endangered,23.7645,100.0195
Laomian (Myanmar),2500,Definitely endangered,22.6833,99.25
Lhokpu,2500,Definitely endangered,26.9514,89.2968
Martuwangka,2500,Vulnerable,-24.1975,122.9589
Mayoruna (Peru),2500,Vulnerable,-5.5285,-73.4765
Pingelapese,2500,Severely endangered,6.2279,160.7107
Rapanui,2500,Severely endangered,-27.108,-109.3579
Remo,2500,Severely endangered,19.1659,82.6391
Roshorvi,2500,Severely endangered,38.1086,72.1719
Sanglechi,2500,Severely endangered,36.6585,71.4784
Semelai,2500,Severely endangered,3.1761,102.4818
Urak Lawoi (Malaysia),2500,Definitely endangered,6.4194,99.7869
Urak Lawoi (Thailand),2500,Definitely endangered,7.7756,98.3306
Zirenkel,2500,Definitely endangered,12.136,18.4735
Vumbu,2460,Definitely endangered,-1.8783,10.816
Mopán (Guatemala),2455,Severely endangered,16.5144,-89.4167
Cuiba,2445,Severely endangered,6.4463,-69.9389
Raji,2413,Severely endangered,27.9721,82.3135
Highland Chontal,2410,Severely endangered,16.2832,-95.857
Yasa,2401,Definitely endangered,2.3284,9.8464
Bumbita Arapesh,2353,Vulnerable,-3.6449,142.8002
Mang (China),2300,Definitely endangered,22.8293,103.1039
Mang (Viet Nam),2300,Definitely endangered,22.35,102.9666
Tlachichilco Tepehua,2234,Definitely endangered,20.6205,-98.1991
Blackfoot (Canada),2200,Definitely endangered,49.3535,-113.2884
Jaya,2200,Severely endangered,12.187,18.1645
Karipuna do Amapá,2200,Vulnerable,3.3379,-51.6796
Kulfa,2200,Definitely endangered,9.9742,19.1848
Krahô,2184,Vulnerable,-8.4071,-47.2851
Kristang,2150,Severely endangered,2.1935,102.256
Yine,2150,Definitely endangered,-11.4584,-73.0261
North Alaskan Inupiaq (Kotzebue Sound),2144,Severely endangered,66.8972,-162.5855
North Alaskan Inupiaq (North Slope),2144,Severely endangered,71.2725,-156.7749
Seward Peninsula Inupiaq (King Island),2144,Critically endangered,64.9728,-168.0616
Seward Peninsula Inupiaq (Little Diomede Island),2144,Critically endangered,65.755,-168.9167
Seward Peninsula Inupiaq (Norton Sound),2144,Critically endangered,64.5433,-163.029
Katukína-Kanamarí,2100,Vulnerable,-5.6159,-68.7304
Tiwi,2100,Vulnerable,-11.6091,130.8911
Zaozou,2100,Vulnerable,26.1554,99.2944
Ngäbere (Costa Rica),2041,Definitely endangered,8.4723,-82.9907
Aiton,2000,Severely endangered,26.6523,94.2901
Anindilyakwa,2000,Vulnerable,-13.9987,136.582
Apurinã,2000,Definitely endangered,-5.4847,-63.8964
Arrernte,2000,Vulnerable,-24.1668,132.0996
Ashkun,2000,Definitely endangered,34.9973,71.0746
Ata,2000,Critically endangered,9.6081,122.9155
Athpahariya,2000,Definitely endangered,26.952,87.3399
Ava-Guaraní,2000,Definitely endangered,-23.1403,-64.3359
Bayso,2000,Definitely endangered,6.4081,37.749
Birhor,2000,Critically endangered,21.7594,85.935
Boano,2000,Vulnerable,0.4724,120.9979
Bori,2000,Definitely endangered,28.9889,94.4439
Chepya,2000,Definitely endangered,21.3833,101.8166
Chilisso,2000,Severely endangered,35.2136,73.2396
Culina (Brazil),2000,Vulnerable,-7.1008,-68.7744
Damana,2000,Definitely endangered,10.9196,-73.4985
Duguza,2000,Definitely endangered,9.9039,9.1186
Galibi Marworno,2000,Vulnerable,3.4256,-52.0312
Gats'ama - Ganjule - Harro,2000,Definitely endangered,5.9548,37.5292
Gebe,2000,Vulnerable,-0.1922,129.5397
Ghadames,2000,Vulnerable,30.1166,9.5251
Griko (Calabria),2000,Severely endangered,37.9961,15.9329
Huilliche,2000,Critically endangered,-40.4803,-73.5424
Ik,2000,Severely endangered,3.5024,34.1894
Jangshung,2000,Definitely endangered,31.7748,78.4753
Jero,2000,Vulnerable,27.2241,86.3909
Kari'ña (French Guyana),2000,Definitely endangered,5.5066,-53.6572
Khamnigan Mongol,2000,Definitely endangered,50.3454,114.1094
Kona,2000,Severely endangered,9.0587,11.2829
Koreguaje,2000,Definitely endangered,1,-75
Koryak,2000,Severely endangered,61.8561,168.6621
Kota,2000,Critically endangered,11.4154,76.8576
Logorik,2000,Critically endangered,11.1433,29.8306
Lule Saami,2000,Severely endangered,67.272,17.7978
Luro,2000,Critically endangered,7.915,93.3837
Mambai,2000,Severely endangered,9.6007,14.0899
Milang,2000,Definitely endangered,28.488,95.2954
Mocoví,2000,Definitely endangered,-27.6056,-59.7656
Momuna,2000,Vulnerable,-5,139
Mpi,2000,Definitely endangered,18.2554,100.2227
Muda,2000,Vulnerable,21.8421,100.6851
Munji,2000,Severely endangered,36.0379,70.6723
Nguon,2000,Vulnerable,17.5333,105.3833
Nheengatu / Yeral (Venezuela),2000,Severely endangered,1.2303,-66.8408
Nihali,2000,Critically endangered,20.5402,76.0913
Nyishangba,2000,Definitely endangered,28.6423,84.1017
Ottawa (Walpole Island),2000,Severely endangered,42.6068,-82.5195
Prasun,2000,Definitely endangered,35.3543,71.26
Rukai,2000,Vulnerable,22.792,120.8104
Sáliba,2000,Severely endangered,5.3097,-69.873
Sangkong,2000,Vulnerable,21.5158,100.6957
Sarwa,2000,Definitely endangered,10.5958,17.0397
Shoshoni (Idaho),2000,Severely endangered,43.0438,-112.4629
Shoshoni (Nevada),2000,Severely endangered,40.0358,-113.9835
Shoshoni (Wyoming),2000,Severely endangered,43.014,-108.8209
Tai Phake,2000,Severely endangered,27.5033,95.2185
Tamazight (Arzew),2000,Critically endangered,35.5869,-0.4737
Tanglang,2000,Vulnerable,26.0863,99.7119
Tchitchege,2000,Definitely endangered,-1.8508,13.612
Tinan,2000,Definitely endangered,32.519,77.6733
Tsafiki,2000,Definitely endangered,-0.25,-79.15
Ukhwejo,2000,Severely endangered,3.3626,16.0565
Urarina,2000,Vulnerable,-4.3464,-75.3002
Ushojo,2000,Definitely endangered,35.0209,72.897
Waigali,2000,Definitely endangered,35.1895,71.1941
Waotededo,2000,Vulnerable,-1.1864,-76.6296
Wotapuri-Katarqalai,2000,Definitely endangered,34.4166,70.3333
Wutun,2000,Definitely endangered,35.791,102.4365
Candoshi,1900,Definitely endangered,-3.7107,-76.9042
Hupda (Brazil),1900,Vulnerable,0.7909,-68.247
Mixtec of the central Ravine,1878,Definitely endangered,17.9666,-96.8333
Kendeje,1859,Definitely endangered,13.6299,21.5771
Hunzib,1839,Definitely endangered,42.1654,46.2991
Tchumbuli,1838,Critically endangered,8.7113,2.1533
Cashibo-Cacataibo,1800,Definitely endangered,-8.9393,-75.0915
Grass Koiari,1800,Vulnerable,-9.4558,147.5559
Isirawa,1800,Vulnerable,-1.8783,138.5485
Lanoh,1800,Critically endangered,5.2509,101.0206
Lemolang,1800,Vulnerable,-2.6303,120.1849
Nila (Seram Island),1800,Definitely endangered,-3.2173,128.9849
Shixing,1800,Definitely endangered,28.5263,100.4734
Chuj (Mexico),1771,Critically endangered,16.1203,-92.0407
Darma,1761,Definitely endangered,30.0037,80.5641
Kung,1750,Severely endangered,6.5227,10.1074
Lokono (Guyana),1750,Critically endangered,6.2934,-58.0957
Byangsi,1734,Definitely endangered,30.0595,80.7824
Pasing,1732,Definitely endangered,21.1254,101.4697
Yamphu,1722,Definitely endangered,27.5935,87.3316
Andio,1700,Vulnerable,-0.8514,123.1457
Cheyenne (Montana),1700,Definitely endangered,45.5495,-106.5263
Kumzari,1700,Severely endangered,26.1936,56.2431
Quechua of Yauyos,1700,Critically endangered,-12.9081,-75.6958
Bainouk-Samik,1685,Severely endangered,12.5733,-16.2652
Côông,1676,Definitely endangered,22.5943,102.7455
Dogrib,1675,Vulnerable,62.8292,-115.9904
Upland Yuman,1650,Vulnerable,36.2377,-112.7094
Eastern Cuicatec,1641,Vulnerable,17.9666,-96.7166
Tamazight (Ait Rouadi),1637,Extinct,32.5745,-5.9655
Woleaian,1631,Severely endangered,7.3515,143.8769
Huehuetla Tepehua,1603,Definitely endangered,20.46,-98.0761
Kadiwéu,1600,Definitely endangered,-20.5222,-56.7237
Southern Tiwa (Isleta Pueblo),1600,Definitely endangered,34.9057,-106.7066
Southern Tiwa (Sandia Pueblo),1600,Definitely endangered,35.2516,-106.565
Tewa (Arizona),1600,Definitely endangered,35.8334,-110.3798
Tewa (New Mexico),1600,Severely endangered,36.053,-106.0708
?Gana,1550,Vulnerable,-21.7824,21.8971
Akwáwa,1548,Vulnerable,-5.2441,-52.7014
Northern Cuicatec,1503,Vulnerable,17.9511,-96.7384
Chiquihuitlán Mazatec,1502,Definitely endangered,17.9953,-96.7449
Apinajé,1500,Vulnerable,-6.0317,-47.5604
Bashkarik,1500,Severely endangered,35.2893,72.6168
Chintang,1500,Severely endangered,26.9367,87.1991
Forest Nenets,1500,Severely endangered,64.9188,77.7941
Hupda (Colombia),1500,Definitely endangered,0.3845,-70.1367
Jah Hut,1500,Severely endangered,3.6452,102.3065
Jeri,1500,Severely endangered,9.2647,-5.8666
Jonkor Bourmataguil,1500,Severely endangered,11.4261,19.0145
K'emant,1500,Severely endangered,12.9349,37.2326
Kanashi,1500,Definitely endangered,32.0406,77.1075
Karajá,1500,Vulnerable,-11.0921,-50.3393
Karelian (Tikhvin),1500,Severely endangered,59.601,33.3544
Kendem,1500,Severely endangered,5.7061,9.6377
Khamba,1500,Definitely endangered,29.0105,94.7653
Lishpa,1500,Definitely endangered,27.3327,92.384
Mayoruna (Brazil),1500,Vulnerable,-3.3379,-64.8413
Mescalero-Chiricahua Apache (New Mexico),1500,Definitely endangered,33.1514,-105.7942
Numao Bunu,1500,Definitely endangered,24.3902,107.2701
Orang Seletar,1500,Severely endangered,1.3387,103.464
Palenque Creole,1500,Definitely endangered,10.0952,-75.1142
Pong,1500,Definitely endangered,18.4666,105.05
Pyuma,1500,Vulnerable,22.8027,121.0748
Saaroa,1500,Critically endangered,23.1283,120.7062
Saluan,1500,Vulnerable,-0.8129,122.871
Semaq Beri,1500,Critically endangered,4.0012,102.8443
Talodi,1500,Critically endangered,10.6902,30.3964
Wayana (Suriname),1500,Vulnerable,2.7455,-54.58
Wik Mungkan,1500,Vulnerable,-12.9403,141.9873
Natsilingmiutut,1455,Vulnerable,68.643,-95.8863
Movima,1452,Severely endangered,-13.7954,-65.4345
Ngombe,1450,Definitely endangered,3.9492,15.2352
Cinta Larga,1440,Vulnerable,-11.4154,-59.7216
Dupaninan Agta,1400,Vulnerable,17.9682,122.0361
Tese,1400,Critically endangered,11.2161,29.8471
Bororo,1390,Definitely endangered,-15.5172,-53.1024
Puluwat,1364,Severely endangered,7.5803,149.425
Kanela Rankokamekra,1337,Vulnerable,-6.075,-44.9121
Saba,1335,Definitely endangered,11.1487,18.0175
Kurripako (Brazil),1332,Vulnerable,0.7001,-68.3789
Triw,1328,Definitely endangered,15.6833,107.2
Guernsey French,1327,Severely endangered,49.4502,-2.5927
Paafang,1318,Severely endangered,7.6198,155.1571
Ch?l?ng,1314,Definitely endangered,26.9483,87.2527
Zapotec of the Valleys north,1303,Severely endangered,17.0666,-96.65
Cypriot Arabic,1300,Severely endangered,35.3196,33.338
Palikur (Brazil),1300,Vulnerable,4.0396,-51.7236
Sanenyo,1300,Critically endangered,7.9504,93.576
Tecóatl Mazatec,1300,Vulnerable,18.1653,-96.9124
Xinka,1283,Critically endangered,14.3447,-90.2603
Ozomatlán Totonac,1276,Critically endangered,20.1766,-98.0527
K?gate,1273,Definitely endangered,27.5449,86.2925
Maxakali,1271,Vulnerable,-16.5519,-40.3417
Murik,1256,Vulnerable,-3.8368,144.2807
Pengo,1254,Critically endangered,19.0621,83.4851
Marúbo,1252,Vulnerable,-6.0968,-70.2246
Aivilingmiutut,1245,Vulnerable,64.1657,-83.243
Besme,1228,Severely endangered,9.6386,16.018
Oirata,1221,Definitely endangered,-8.0755,127.1777
Lohorung,1207,Severely endangered,27.4266,87.2498
Harakmbut,1206,Definitely endangered,-12.9403,-70.2685
Buyang,1200,Severely endangered,23.4146,105.7632
Dakka,1200,Vulnerable,-3.316,119.2071
Mah Meri,1200,Severely endangered,2.836,101.4299
Manjui,1200,Definitely endangered,-23.1201,-62.7539
Te'un (Seram Island),1200,Definitely endangered,-3.1843,128.9465
Tsou,1200,Vulnerable,23.5174,120.8564
Ujir,1200,Definitely endangered,-5.6105,134.2776
White Gelao (China),1200,Severely endangered,26.4894,105.021
Dakkang,1198,Definitely endangered,15.6333,107.25
Northern Algonquin,1180,Vulnerable,48.0616,-77.3521
Akawaio (Brazil),1170,Vulnerable,4.1711,-60.249
Huehuetlán Mazatec,1169,Vulnerable,18.1964,-96.9471
Trio (Brazil),1156,Vulnerable,1.7136,-55.2392
Savo,1147,Definitely endangered,-9.1292,159.8071
Tektitek,1144,Definitely endangered,15.3073,-92.0609
Fwâi,1131,Vulnerable,-20.7048,164.9034
Waimirí-Atroarí,1120,Vulnerable,-1.0985,-60.8203
Guayabero,1118,Definitely endangered,2.6028,-72.3999
Fagauvea (Northern),1107,Vulnerable,-20.4089,166.5444
Fagauvea (Southern),1107,Vulnerable,-20.7381,166.4126
Fania,1100,Severely endangered,10.0581,18.3993
Ubi,1100,Severely endangered,12.1534,18.6946
Warnang,1100,Severely endangered,10.6538,30.6298
Itzá,1094,Critically endangered,16.9838,-89.899
Mixtec of the southwest of Puebla,1074,Definitely endangered,18.6333,-98.0666
Lowland Chontal,1060,Critically endangered,16.0286,-95.6683
Koireng,1056,Critically endangered,24.2319,93.7463
Chipaya,1050,Definitely endangered,-19.2074,-68.2031
Mokilese,1050,Critically endangered,6.6864,159.7631
Western Náhuatl,1041,Severely endangered,18.3745,-103.3026
Acatepec Mazatec,1038,Vulnerable,18.1621,-96.8766
Mixtec of Villa de Tututepec,1019,Definitely endangered,16.1333,-97.6
Toda,1006,Critically endangered,11.3184,76.8273
Adabe,1000,Vulnerable,-8.2549,125.5737
Alutor,1000,Severely endangered,60.2016,165.4238
Arapaho (Wyoming),1000,Severely endangered,43.0139,-108.8214
Beeke,1000,Severely endangered,0.9997,28.7951
Blackfoot (United States of America),1000,Definitely endangered,48.5699,-113.0918
Bohtan Neo-Aramaic,1000,Severely endangered,41.5579,45.0219
Bola,1000,Definitely endangered,25.0638,98.2414
Bong'om,1000,Definitely endangered,1.1315,35.0134
Bora,1000,Vulnerable,-2.7455,-71.8835
Central Siberian Yupik (St. Lawrence Island),1000,Definitely endangered,63.7444,-171.7242
Chali,1000,Definitely endangered,27.301,91.2991
Cherokee (North Carolina),1000,Severely endangered,35.113,-84.0588
Cocama-Cocamilla (Peru),1000,Severely endangered,-4.8282,-74.2565
Dair,1000,Severely endangered,12.517,30.5914
Dakpa,1000,Definitely endangered,27.3937,91.8965
Dampelas,1000,Definitely endangered,0.2005,119.8965
Danaw,1000,Critically endangered,21.192,97.3937
Ega,1000,Severely endangered,5.8018,-5.4492
El Hugeirat,1000,Severely endangered,12.3131,28.4243
Faghani,1000,Vulnerable,-10.4337,161.5979
Fongoro,1000,Severely endangered,11.1029,22.7197
Gambiri,1000,Severely endangered,34.9017,70.9085
Gongduk,1000,Vulnerable,27.086,91.2002
Gorap,1000,Definitely endangered,2.1528,128.2516
Guugu Yimidhirr,1000,Vulnerable,-14.8598,144.7338
Gyem,1000,Critically endangered,10.3865,9.3122
Habu,1000,Vulnerable,-8.7819,126.0021
Hawaiian,1000,Critically endangered,21.9226,-160.1147
Hértevin,1000,Critically endangered,37.9268,42.5473
Hu,1000,Definitely endangered,22.1743,100.9264
Hualapai,1000,Vulnerable,35.5279,-113.4297
Hung,1000,Definitely endangered,18.9062,105.05
Inkhokvari,1000,Definitely endangered,42.3981,46.0299
Ishkashimi,1000,Severely endangered,36.6915,71.7668
Iyive,1000,Severely endangered,6.4354,9.5278
Jiongnai Bunu,1000,Definitely endangered,23.3902,108.5135
Kaande,1000,Severely endangered,-0.1318,11.8103
Kaco',1000,Definitely endangered,13.934,107.4222
Kadu,1000,Severely endangered,24.2042,95.6332
Kairui-Midiki,1000,Vulnerable,-8.7222,126.2878
Kari,1000,Severely endangered,4.8392,25.5432
Kayabi,1000,Vulnerable,-11.1972,-53.2342
Khowa,1000,Definitely endangered,27.2546,92.5323
Kodeoha,1000,Vulnerable,-3.4147,120.9155
Kujarge,1000,Definitely endangered,11.749,22.2431
Kukatja,1000,Vulnerable,-21.2074,126.4746
Kuot,1000,Vulnerable,-3.0692,151.5234
Lokono (Suriname),1000,Severely endangered,5.6487,-55.1074
Mahongwe,1000,Severely endangered,1.0216,13.9031
Manchurian Ölöt,1000,Severely endangered,48.1953,124.2993
May,1000,Definitely endangered,18.0623,105.5786
Mbara,1000,Severely endangered,10.8009,15.6335
Mech,1000,Severely endangered,26.5688,89.1979
Mòcheno,1000,Definitely endangered,46.1194,11.3258
Naueti,1000,Vulnerable,-8.7357,126.7053
North Greenlandic,1000,Definitely endangered,77.4815,-69.3511
Ormuri,1000,Definitely endangered,32.518,69.783
Paiter,1000,Vulnerable,-11.1245,-61.3476
Pareci,1000,Definitely endangered,-14.3525,-58.0174
Pasi,1000,Definitely endangered,28.1834,95.2651
Resian,1000,Definitely endangered,46.3734,13.3058
Sach,1000,Definitely endangered,17.78,105.7666
Sake,1000,Severely endangered,-0.0247,11.7691
Saterlandic,1000,Severely endangered,53.1059,7.6787
She,1000,Critically endangered,23.3333,115.2459
Shumashti,1000,Severely endangered,34.6108,70.7569
Sighu,1000,Severely endangered,-0.0549,13.5461
Sobei,1000,Definitely endangered,-1.8632,138.7408
Thavung (Laos),1000,Definitely endangered,18.4666,104.6666
Tirma,1000,Critically endangered,6.4899,34.3212
Tombelala,1000,Vulnerable,-2.5315,121.9454
Toto,1000,Critically endangered,26.6867,89.5056
Trio (Suriname),1000,Vulnerable,2.1528,-56.3818
Tum,1000,Definitely endangered,18.7,105.05
Tuotomb,1000,Severely endangered,4.4449,10.371
Yatê,1000,Severely endangered,-7.0136,-37.0458
Zaiwa,1000,Definitely endangered,28.4735,96.4764
Zay,1000,Severely endangered,8.0728,38.8476
Zenaga (Western Sahara),1000,Critically endangered,22.2687,-13.7109
|Gui,1000,Vulnerable,-21.8385,21.7858
?Ani,1000,Definitely endangered,-18.6462,22.1319
Buglé,993,Definitely endangered,8.5858,-82.3856
Ka'apór,991,Vulnerable,-2.8991,-46.3183
Hadza,975,Vulnerable,-3.401,35.3897
Kunwinjku,974,Vulnerable,-12.1333,133.4014
Bakairi,950,Vulnerable,-14.4213,-54.0305
Drubea,946,Vulnerable,-22.0347,166.5527
Namonuito,944,Severely endangered,8.6299,150.0128
Hya,940,Severely endangered,10.3311,13.5269
Machineri (Brazil),937,Vulnerable,-10.5742,-70.4882
South Slavey,920,Definitely endangered,61.8154,-121.3346
Wajãpi,905,Vulnerable,0.747,-52.8442
Mewahang,904,Severely endangered,27.5441,87.1401
Awapit,900,Severely endangered,1.0985,-78.706
Chimila,900,Severely endangered,10.0986,-73.894
Kua,900,Definitely endangered,-22.7106,26.4605
Njalgulgule,900,Severely endangered,8.4452,25.3015
Pech,900,Severely endangered,15.0819,-85.5552
Rikbaktsa,900,Severely endangered,-10.6174,-58.2714
Caac,890,Vulnerable,-20.3883,164.5614
Inuinnaqtun,890,Definitely endangered,67.8443,-115.2742
Voh-Koné dialects,878,Definitely endangered,-20.9665,164.7866
Kuna (Colombia),876,Severely endangered,7.8633,-76.9042
Dení,875,Vulnerable,-6.5773,-68.1591
Tarao,870,Critically endangered,24.297,93.4497
Santa María del Mar Huave,862,Severely endangered,16.2166,-94.85
Nukuoro,860,Definitely endangered,3.8574,154.9786
Mixtec of Santa Cruz Itundujia,851,Definitely endangered,16.7666,-97.6
"Zapotec of the Southern mountains, northeast",849,Definitely endangered,16.2666,-96.2833
Kumak,847,Vulnerable,-20.1278,164.0259
Pukapukan,840,Definitely endangered,-10.871,-165.8441
Lola,830,Vulnerable,-6.3316,134.8818
Ashaninka (Brazil),813,Vulnerable,-9.3786,-73.1414
Ottawa (Canada),810,Severely endangered,46.1519,-82.2243
Bati,800,Severely endangered,4.2012,10.7858
Chorote Iyojwa'ja,800,Severely endangered,-24.287,-60.3808
Eman,800,Severely endangered,6.0531,9.7338
Isu,800,Severely endangered,4.0094,9.5745
Jamamadí,800,Vulnerable,-9.0424,-68.3789
Javaé,800,Definitely endangered,-11.1568,-50.4711
Nubaca,800,Severely endangered,4.2971,10.7446
Panasuan,800,Definitely endangered,-2.2516,119.5806
Piaroa (Colombia),800,Definitely endangered,4,-68.6666
Taos,800,Definitely endangered,36.4717,-105.5596
Taulil,800,Vulnerable,-4.5435,152.0397
Tuyuca (Brazil),800,Vulnerable,0.4394,-66.8847
Kaike,794,Definitely endangered,28.9642,82.9819
Kildin Saami,787,Severely endangered,68.0075,35.0079
Ese eja,782,Definitely endangered,-12.5867,-69.0161
Central Cagayan Agta,779,Vulnerable,17.9891,121.8603
Mixtec of Santa Inés de Zaragoza,775,Definitely endangered,17.2333,-97.1666
Ocopetatillo Mazatec,757,Vulnerable,18.1856,-96.9113
Jaqaru,750,Severely endangered,-12.7488,-75.8248
Waiwai (Suriname),750,Critically endangered,2.1528,-56.206
Laal,749,Critically endangered,9.9607,17.6083
Ulcha,732,Critically endangered,52.0457,140.4162
Jawe,729,Vulnerable,-20.4913,164.696
Maslam,723,Severely endangered,12.136,14.6914
Nambiquara do Sul,721,Vulnerable,-13.2506,-59.5404
North Slavey,720,Definitely endangered,65.2161,-123.4362
Gitksan,710,Severely endangered,55.355,-127.6828
A'ingae / Cofan (Ecuador),700,Definitely endangered,0.0659,-76.7065
Animere,700,Critically endangered,7.6129,0.4064
Batek,700,Critically endangered,4.6695,102.5051
Enggano,700,Vulnerable,-5.4191,102.2717
Indri,700,Severely endangered,8.4397,25.5926
Kalaw Lagaw Ya,700,Definitely endangered,-10.0828,142.1081
Lakon,700,Vulnerable,-14.251,167.422
Mok (China),700,Definitely endangered,21.5158,100.221
Ngaanyatjarra,700,Vulnerable,-26.037,124.541
Ngatikese Men's Creole,700,Definitely endangered,5.8305,157.2308
Piratapuya (Brazil),700,Severely endangered,0.5712,-66.7089
Mountain Guarijío,696,Vulnerable,27.8758,-108.553
Nivkh (Sakhalin),688,Severely endangered,51.7814,143.1628
Krikati,682,Vulnerable,-5.8674,-46.7468
Dakota,675,Definitely endangered,49.8461,-100.5035
Carrier,660,Severely endangered,54.2395,-125.7621
Matlatzinca,651,Definitely endangered,19.0479,-100.2197
Kasanga,650,Critically endangered,12.2702,-16.1553
Wanano / Kotiria (Brazil),650,Vulnerable,0.6152,-67.5
Central Popoloc,641,Severely endangered,18.5842,-97.9295
Eastern Ojibwe,620,Severely endangered,44.8381,-80.1983
River Guarijío,617,Vulnerable,27.5196,-109.2525
Yuhup (Brazil),617,Vulnerable,-1.0546,-69.3896
Ocoyoacac Otomí,609,Severely endangered,19.2716,-99.4613
Akum,600,Critically endangered,6.73,9.9316
Blablanga,600,Definitely endangered,-8.206,159.4638
Bubia,600,Severely endangered,4.0204,9.2037
Chickasaw,600,Severely endangered,34.6,-96.8161
Desano (Brazil),600,Definitely endangered,0.0878,-67.9394
Faetar,600,Definitely endangered,41.3265,15.1721
Hixkaryána,600,Vulnerable,-0.5493,-58.5131
Hoava,600,Vulnerable,-8.1883,157.6036
Hodi,600,Vulnerable,6.075,-65.6323
Iñapari,600,Critically endangered,-12.0822,-69.7412
Koke,600,Severely endangered,10.8575,18.1315
Kowiai,600,Vulnerable,-3.9437,134.0881
Kuikuro,600,Vulnerable,-12.35,-53.21
Laiyolo,600,Definitely endangered,-6.3862,120.4733
Mo'da,600,Critically endangered,6.5008,29.9377
Northern Selkup,600,Severely endangered,65.7035,82.4441
Penrhyn,600,Severely endangered,-9.0153,-158.0218
Pintupi,600,Vulnerable,-22.8882,128.3203
Piratapuya (Colombia),600,Critically endangered,0.8333,-69.5
Siona / Secoya (Ecuador),600,Severely endangered,-0.0659,-76.3989
Sonsorol,600,Severely endangered,7.4278,134.5495
Teanu,600,Definitely endangered,-11.6219,166.9633
Yaminahua (Brazil),600,Vulnerable,-10.6606,-69.6972
Andoke,597,Severely endangered,-0.769,-72.2351
Southern Tlapanec,592,Severely endangered,16.7325,-98.6034
Orowe,587,Definitely endangered,-21.4223,165.4678
Mosetén,585,Severely endangered,-15.4113,-67.5
Chatong,580,Definitely endangered,15.65,107.1166
Norfolk-Pitcairn (Norfolk),580,Definitely endangered,-29.0225,167.9425
Nunatsiavummiutut,575,Definitely endangered,56.532,-61.7408
Shuswap,570,Definitely endangered,51.7886,-122.2286
Xaragure,566,Vulnerable,-21.8054,166.4964
Tapirapé,564,Vulnerable,-10.6606,-50.4602
Lacandón,563,Critically endangered,16.706,-91.0641
Zapotec of Zimatlán de Álvarez,562,Definitely endangered,16.8666,-96.7833
Chilcotin,560,Definitely endangered,52.031,-123.1678
Chácobo,550,Definitely endangered,-11.3454,-65.8135
Gao,550,Vulnerable,-8.3514,159.8167
Geme,550,Critically endangered,8.4941,20.6378
Karore,550,Vulnerable,-6.1542,149.8205
Yuhup (Colombia),550,Definitely endangered,-0.5493,-69.9169
Western Tlapanec,549,Vulnerable,17.4101,-99.2423
Hinukh,548,Definitely endangered,42.1801,45.977
Anuki,542,Definitely endangered,-9.6522,149.7656
Imeraguen,534,Definitely endangered,18.9166,-15.996
Narpa,533,Definitely endangered,28.7315,84.261
Akatek (Mexico),532,Vulnerable,16.7823,-93.1061
Naskapi,525,Vulnerable,54.903,-66.802
Archi,524,Definitely endangered,41.9839,46.8127
Yawanawá,519,Vulnerable,-10.8333,-70.0927
Raute,518,Severely endangered,28.9744,80.7969
Seri,518,Vulnerable,29.2333,-112.2
Western Popoloc,516,Severely endangered,18.4141,-98.0176
Yaqui (United States of America),510,Definitely endangered,32.1158,-111.0638
Kalapalo,506,Vulnerable,-12.1574,-53.2521
Nganasan,505,Severely endangered,72.816,91.582
Jakaltek (Mexico),504,Severely endangered,16.3137,-93.2084
Zapotec of San Antonino el Alto,504,Definitely endangered,16.8166,-97.0333
Purum,503,Critically endangered,24.3521,93.5925
Aheu,500,Definitely endangered,18.4333,104.5
Amahuaca,500,Severely endangered,-10.8764,-72.29
Anfillo,500,Critically endangered,8.5049,34.7415
Arbanasi,500,Severely endangered,44.0994,15.2545
Baniva,500,Severely endangered,2.8333,-67.5219
Bataan Ayta,500,Definitely endangered,14.4324,120.4788
Bats,500,Severely endangered,42.0982,45.0878
Black Mountain,500,Definitely endangered,27.1955,90.43
Busoa,500,Vulnerable,-5.5722,122.6074
Chong,500,Severely endangered,12.9506,102.0374
Domaaki,500,Severely endangered,36.0979,73.9627
Ganan,500,Severely endangered,24.2317,95.3778
Havasupai,500,Definitely endangered,36.2429,-112.6897
Kensiw (Thailand),500,Severely endangered,7.1712,99.7915
Khmin,500,Vulnerable,22.0469,100.8065
Khvarshi,500,Definitely endangered,42.3417,46.1212
Kundal Shahi,500,Definitely endangered,34.55,73.8833
Laghuu,500,Definitely endangered,23.6166,105.6833
Laha (Lao Cai),500,Definitely endangered,22.0333,103.75
Laha (Son La),500,Definitely endangered,21.4666,103.75
Langa,500,Severely endangered,6.5404,11.6427
Laxudumau,500,Vulnerable,-2.8922,151.2467
Majera,500,Critically endangered,11.3231,14.9839
Maliseet-Passamaquoddy,500,Severely endangered,44.9572,-67.0496
Mikasuki,500,Vulnerable,26.3202,-80.9877
Mlomp,500,Critically endangered,12.7421,-16.4904
Onin,500,Vulnerable,-2.9745,132.2383
Ormu,500,Vulnerable,-2.5136,140.6675
Palikur (French Guyana),500,Severely endangered,3.908,-51.9873
Pemon (Brazil),500,Vulnerable,4.664,-60.216
Quechua of Chachapoyas,500,Critically endangered,-6.2606,-77.7722
Samatu,500,Critically endangered,24.2105,98.9655
Seke,500,Vulnerable,28.9282,83.8249
Siona / Secoya (Colombia),500,Critically endangered,0.493,-76.2464
South Saami,500,Severely endangered,64.2063,13.4802
Taikat,500,Definitely endangered,-2.8429,140.846
Taloki,500,Definitely endangered,-4.5928,122.8628
Tamki,500,Critically endangered,11.48,18.2125
Tawahka,500,Severely endangered,15.3602,-85.1373
Thavung (Thailand),500,Severely endangered,17.3168,103.5142
Tomadino,500,Definitely endangered,-2.5836,121.9729
Toratán,500,Definitely endangered,1.0354,124.7985
Tunisian Judeo-Arabic (Tunisia),500,Critically endangered,33.8795,10.0634
Ulwa,500,Severely endangered,12.8894,-83.5779
"Ute (Colorado, Ute Mountain)",500,Severely endangered,37.2105,-108.7223
Walmajarri,500,Definitely endangered,-19.9939,125.5297
Warekena (Venezuela),500,Severely endangered,2.5479,-67.2802
Boguru,494,Critically endangered,4.3902,29.2016
Pukobyê,494,Vulnerable,-5.3316,-46.7138
Swoeng,492,Definitely endangered,15.3333,106.75
Wali,487,Critically endangered,11.9372,29.3005
Gavião do Pará,476,Vulnerable,-5.1784,-48.999
Malecite,475,Definitely endangered,46.8023,-67.6686
Ninam (Brazil),466,Vulnerable,3.1185,-62.9736
Zoró,464,Vulnerable,-10.9519,-61.0729
Sanema (Brazil),462,Vulnerable,2.8113,-63.0615
Ixtenco Otomí,461,Severely endangered,19.2495,-97.8943
Ottawa (Michigan),459,Critically endangered,43.5971,-84.7752
Kanela Apaniekra,458,Vulnerable,-6.2716,-46.1865
Satawal,458,Severely endangered,7.3406,147.041
Chatino of Zacatepec,453,Definitely endangered,16.1333,-97.35
Demisa,450,Definitely endangered,-2.7016,136.6699
Koasati (Louisiana),450,Definitely endangered,30.4855,-92.8494
Koasati (Texas),450,Definitely endangered,30.7155,-94.6965
Nanti,450,Vulnerable,-11.6629,-72.6965
Shabo,450,Severely endangered,7.327,35.2935
Sharanahua,450,Severely endangered,-10.3365,-70.9277
Siona  Secoya (Peru),450,Definitely endangered,-0.5712,-74.8828
Tolomako,450,Definitely endangered,-15.1834,166.8438
Enawenê-Nawê,445,Vulnerable,-12.5223,-59.7656
Valle Nacional Chinantec,442,Definitely endangered,17.7747,-96.3034
Gavião de Rondônia,436,Vulnerable,-10.4445,-61.6992
Tabasco Náhuatl,434,Critically endangered,18.0026,-93.3722
Sera,432,Severely endangered,-3.0033,141.9158
Yecuana (Brazil),430,Vulnerable,2.8552,-63.3251
Alabugat Tatar,422,Definitely endangered,45.4447,47.0324
"Zapotec of the Southern mountains, eastern lowlands",420,Definitely endangered,16.2,-96.7
Western Otomí,415,Severely endangered,19.4335,-100.3456
Moose Cree,405,Vulnerable,52.2827,-81.6276
Tlahuica,405,Severely endangered,18.9664,-99.4137
Katukina do Acre,404,Severely endangered,-6.4899,-69.2578
Abai Sungai,400,Definitely endangered,5.587,118.3695
Barasana (Colombia),400,Critically endangered,0.0769,-70.3894
Beezen,400,Severely endangered,6.7518,10.0744
Buga,400,Critically endangered,8.2495,25.7574
Cheyenne (Oklahoma),400,Severely endangered,35.6022,-97.9766
Cimbrian,400,Definitely endangered,45.867,11.4268
Cobiana,400,Critically endangered,12.4017,-16.3229
Dagur (Amur),400,Critically endangered,49.5252,127.5402
Dahalo,400,Severely endangered,-2.2625,40.7537
Émérillon,400,Severely endangered,2.8991,-52.8881
Gagauz (Maritime),400,Severely endangered,43.2932,27.9602
Hijuk,400,Critically endangered,4.2861,10.4919
Hobyot,400,Severely endangered,16.6388,53.0612
Inari Saami,400,Severely endangered,68.8446,27.2817
Istriot,400,Severely endangered,45.0541,13.7246
Kalao,400,Definitely endangered,-7.3134,121.0034
Kamaiurá,400,Vulnerable,-12.1655,-53.4292
Kickapoo (Kansas),400,Severely endangered,39.6972,-95.7089
Kickapoo (Oklahoma),400,Severely endangered,35.4245,-97.0713
Kickapoo (Texas),400,Severely endangered,28.6147,-100.4386
Kiowa,400,Severely endangered,35.1016,-98.6197
Koroni,400,Definitely endangered,-2.6412,121.9894
Lamongse,400,Critically endangered,7.3134,93.6968
Ndunda,400,Severely endangered,6.9482,10.9698
Northern Paiute (Nevada),400,Definitely endangered,41.9979,-117.7193
Pupeo,400,Definitely endangered,23.1666,105.1
Rapa,400,Severely endangered,-27.8973,-143.5034
Red Gelao (China),400,Critically endangered,26.2553,105.8571
Sengseng,400,Vulnerable,-6.0681,150.2792
Sirionó,400,Severely endangered,-14.557,-63.7316
Talondo,400,Definitely endangered,-2.3723,119.3774
"Yaminahua (Bolivia, Peru)",400,Severely endangered,-10.7469,-71.7297
Mixtec of Zapotitlán,396,Severely endangered,18.3333,-97.4666
Sanema (Venezuela),393,Vulnerable,4.4669,-64.1931
Ts'ixa,390,Definitely endangered,-18.9894,23.692
Pirahã,389,Vulnerable,-6.9264,-61.1279
Mixtec of San Pedro Tidaá,384,Severely endangered,17.35,-97.3833
Yerong,380,Severely endangered,23.0732,106.0789
A'ingae / Cofan (Colombia),379,Severely endangered,0.4525,-76.9191
Halkomelem,375,Severely endangered,48.7715,-123.6678
Yudja,362,Vulnerable,-10.956,-53.3235
Kisêdjê,351,Vulnerable,-11.5795,-53.031
Auye,350,Vulnerable,-3.5627,135.9915
Awyi,350,Vulnerable,-2.943,140.6359
Bierebo,350,Vulnerable,-16.6539,168.1539
Fayu,350,Vulnerable,-3.1,136.8
Labo,350,Vulnerable,-16.4492,167.4481
Mra,350,Critically endangered,28.3914,93.3837
Myky,350,Vulnerable,-12.5331,-59.5019
Na,350,Critically endangered,28.4638,93.3041
Nadëb,350,Definitely endangered,-1.9771,-67.0166
Taje,350,Critically endangered,-0.747,120.086
Tenharim,350,Severely endangered,-8.4071,-61.1499
Mako,345,Critically endangered,4.2149,-65.7421
Bar?m,342,Critically endangered,28.041,84.629
Ikpeng,342,Vulnerable,-11.7376,-53.616
Gardiol,340,Severely endangered,39.4658,15.9933
Araweté,339,Vulnerable,-5.1347,-52.3388
Northern Pame,337,Definitely endangered,21.9955,-99.6458
Thompson,335,Severely endangered,50.1909,-120.8431
Serili,328,Vulnerable,-8.1136,129.9023
Kaningara,327,Vulnerable,-4.5784,143.3612
Misantla Totonac,325,Critically endangered,19.865,-96.7755
Nemi,325,Definitely endangered,-20.6494,164.6878
Nambiquara do Norte,323,Vulnerable,-11.8028,-59.8095
Matís,322,Vulnerable,-6.1405,-70.664
Wauja,321,Vulnerable,-12.2554,-53.5899
Benggoi,320,Definitely endangered,-3.0748,130.0918
Karitiana,320,Vulnerable,-9.7307,-64.0942
Apalai,317,Vulnerable,1.2084,-55.1074
Kwak'wala,315,Critically endangered,50.7338,-127.4982
Southern Zoque,312,Definitely endangered,16.7138,-93.1194
Tilung,310,Definitely endangered,27.1501,86.5077
Opuuo,307,Critically endangered,8.3202,33.8873
Panará,306,Vulnerable,-9.449,-54.5965
Aka,300,Critically endangered,11.0112,34.2333
Bakole,300,Critically endangered,4.5764,8.8439
Bathari,300,Critically endangered,17.8846,55.5853
Brokkat,300,Definitely endangered,27.5618,90.6152
Duwet,300,Vulnerable,-6.4763,146.8377
Faire Atta,300,Severely endangered,18.027,120.4929
Green Gelao (China),300,Critically endangered,27.7022,106.0952
Green Gelao (Viet Nam),300,Critically endangered,23.1333,105.25
Guatuso,300,Severely endangered,10.6723,-84.8256
Gupapuyngu,300,Vulnerable,-12.6624,136.549
Istro-Romanian,300,Severely endangered,45.3907,14.436
Jicarilla Apache,300,Severely endangered,36.9336,-106.9984
Kandas,300,Vulnerable,-4.4121,152.7868
Kangjia,300,Severely endangered,36.0757,102.2991
Kaxarari,300,Critically endangered,-9.5682,-66.1596
Kwansu,300,Vulnerable,-2.5383,140.2061
Legenyem,300,Vulnerable,-0.3186,130.7345
Mandaic,300,Critically endangered,31.3348,48.7023
Mangareva,300,Severely endangered,-23.1226,-134.978
Mani,300,Critically endangered,9.1129,-13.2165
Maniq,300,Definitely endangered,7.35,99.9333
Mono,300,Critically endangered,8.6679,14.1723
Northern Paiute (Oregon),300,Critically endangered,43.5883,-119.0595
Phong,300,Definitely endangered,18.3333,105
Shanenawa,300,Vulnerable,-8.1014,-70.2129
Sissano,300,Critically endangered,-3.0129,142.0491
Skolt Saami,300,Severely endangered,69.5333,28.6269
Tarpia,300,Severely endangered,-2.3723,140.0317
Tause,300,Vulnerable,-2.8744,136.2469
Thaayorre,300,Definitely endangered,-15.0867,141.7167
Tlingit (United States of America),300,Critically endangered,58.334,-133.7475
Tol,300,Critically endangered,15.293,-87.1416
Tsakonian,300,Critically endangered,37.1712,22.7911
Tuahka,300,Severely endangered,13.838,-84.4409
Ute (Utah),300,Severely endangered,40.2329,-109.8223
Vedda,300,Definitely endangered,7.346,81.3935
Vera'a,300,Definitely endangered,-13.872,167.4323
Warapu,300,Severely endangered,-2.9876,141.9838
Waru,300,Definitely endangered,-3.4393,121.9921
Yawarana,300,Severely endangered,5.3863,-66.0058
Yimas,300,Severely endangered,-4.6038,143.6077
Tilapa Otomí,292,Severely endangered,18.8923,-99.2986
Paumarí,290,Severely endangered,-5.8947,-64.5996
Wayana (Brazil),288,Vulnerable,1.3182,-55.2612
Achagua,283,Severely endangered,4.434,-70.8837
Guajá,283,Vulnerable,-3.4914,-46.2963
Maniwaki Algonquin,280,Severely endangered,46.3392,-76.0485
Alabama,275,Definitely endangered,30.7158,-94.7028
Cocopa (Arizona),275,Severely endangered,32.608,-114.6497
Miltu,272,Critically endangered,10.2149,17.3913
Arara do Pará,271,Vulnerable,-3.7546,-52.976
Kaki Ae,266,Vulnerable,-7.9653,145.7858
Nisga'a,265,Severely endangered,55.2035,-129.07
"Zapotec of the Valleys, central",257,Severely endangered,16.85,-96.6666
Bosilewa,250,Vulnerable,-9.449,150.661
Caquinte Campa,250,Definitely endangered,-11.146,-73.4765
Gwich'in (Canada),250,Severely endangered,67.4407,-134.8272
Kaibobo,250,Definitely endangered,-3.1843,128.1829
Kaiep,250,Vulnerable,-3.6666,143.8166
Kaiy,250,Vulnerable,-2.943,138.1777
Laji,250,Critically endangered,22.5304,105.885
Lehali,250,Vulnerable,-13.5205,167.2998
Lillooet,250,Severely endangered,50.3326,-122.6789
Löyöp,250,Vulnerable,-13.5311,167.3368
Nyangumarta,250,Vulnerable,-20.016,120.4101
Pear,250,Severely endangered,12.4666,102.65
Ruc,250,Definitely endangered,17.6833,105.7833
Sause,250,Severely endangered,-3.1706,139.7515
Texistepecan,250,Severely endangered,17.8941,-94.8163
Winnebago (Nebraska),250,Severely endangered,42.2475,-96.4722
Winnebago (Wisconsin),250,Severely endangered,44.2986,-90.8508
Zapotec of San Bartolo Yautepec,246,Severely endangered,16.4333,-95.9666
Mixtec of San Miguel Piedras,243,Severely endangered,17,-97.05
North Alaskan Inupiaq (Canada),240,Severely endangered,68.3217,-133.532
Waiwai (Guyana),240,Vulnerable,1.5598,-58.5131
As,230,Vulnerable,-0.736,131.7727
Siglitun,230,Severely endangered,69.4386,-132.9998
K'iche' (Mexico),226,Definitely endangered,19.3482,-90.7177
Paipai,226,Severely endangered,29.65,-115.1333
Garuwahi,225,Definitely endangered,-10.2284,150.4083
Picuris,225,Vulnerable,36.1914,-105.7151
Neku,221,Severely endangered,-21.5169,165.4568
Tiri,221,Definitely endangered,-21.6141,165.7836
Danisi,220,Critically endangered,-19.4769,25.2136
Emplawas,220,Definitely endangered,-8.0374,129.7375
Mixtec of the northeast lowlands,220,Severely endangered,17.5333,-97.35
Musom,219,Definitely endangered,-6.5391,146.9119
Pwaamèi,219,Definitely endangered,-20.8767,164.7413
"Zapotec of the Valleys, west",211,Definitely endangered,16.2666,-96.8833
Karo,208,Vulnerable,-10.5749,-61.5893
Cocopa (Mexico),206,Definitely endangered,32.25,-115.25
Korúbo,205,Vulnerable,-5.8346,-70.9277
Aja,200,Critically endangered,8.6136,25.2465
Antakirinya,200,Definitely endangered,-26.7848,134.2968
Bana,200,Severely endangered,20.4836,100.3161
Baras,200,Severely endangered,-1.8838,119.3774
Batak,200,Definitely endangered,10.1081,119
Birri,200,Critically endangered,5.4902,26.8505
Bonggo,200,Severely endangered,-2.2461,139.5208
Central Siberian Yupik (Chukotka),200,Severely endangered,64.546,-173.128
Chawte,200,Definitely endangered,24.1918,94.2736
Che Wong,200,Definitely endangered,3.6271,102.1907
Defaka,200,Critically endangered,4.538,7.5311
Doga,200,Definitely endangered,-9.6278,149.8384
Dorig,200,Definitely endangered,-14.3236,167.5669
Dukha,200,Severely endangered,51.9307,98.9318
Emae,200,Vulnerable,-17.0567,168.3956
Erokwanas,200,Vulnerable,-2.8113,132.6708
Gowro,200,Severely endangered,35.0254,72.9341
Hayu,200,Critically endangered,27.2912,86.0696
Hidatsa,200,Definitely endangered,47.7321,-102.6758
Ingrian,200,Severely endangered,59.7397,28.7017
Iwaidja,200,Vulnerable,-11.4592,132.55
Kadai,200,Definitely endangered,-1.7465,125.2606
Kao,200,Definitely endangered,1.1479,127.8204
Karo,200,Critically endangered,5.2003,36.0681
Kelo,200,Critically endangered,9.4463,34.0219
Kokota,200,Vulnerable,-8.0347,159.1781
Koneraw,200,Vulnerable,-8.3854,137.9415
Koroshi,200,Critically endangered,29.8978,52.6574
Magori,200,Vulnerable,-10.2554,149.2108
Maung,200,Vulnerable,-11.913,133.7255
Mehináku,200,Vulnerable,-12.5423,-53.2403
Moghol,200,Critically endangered,34.3569,61.5875
Ningalami,200,Severely endangered,35.2355,71.51
Northern Alta,200,Severely endangered,15.7162,121.4085
Numbani,200,Vulnerable,-7.5177,147.2991
Nung Ven,200,Vulnerable,23.15,105.2166
Ongamo,200,Critically endangered,-2.932,37.4853
Orejón,200,Severely endangered,-2.7674,-72.9492
Pacific Gulf Yupik,200,Severely endangered,58.1938,-155.6542
Pipil,200,Critically endangered,13.722,-89.7195
Saisiyat,200,Severely endangered,24.5977,121.0762
Sauk-Fox,200,Critically endangered,41.9637,-92.5768
Sepa,200,Vulnerable,-4.3245,144.9755
Shark Bay,200,Vulnerable,-15.2987,167.1459
Southern Chocho,200,Severely endangered,17.6608,-97.335
Theen,200,Severely endangered,20.2022,102.8538
Töitschu,200,Severely endangered,45.6913,7.8682
|Xaise,200,Critically endangered,-21.2458,26.1776
Beaver,195,Definitely endangered,56.481,-121.8831
Nootka,185,Severely endangered,49.2818,-126.0627
Tipai (Mexico),184,Severely endangered,32,-116.1166
Uru-eu-au-au,183,Vulnerable,-11.6852,-63.6547
Eastern Chocho,181,Severely endangered,17.7223,-97.3213
Bahonsuai,180,Definitely endangered,-2.2186,121.6845
Bedoanas,180,Vulnerable,-2.7263,132.5582
Jarawára,180,Vulnerable,-7.2153,-65.0115
Keder,180,Severely endangered,-2.043,139.0979
Straits Salish,180,Severely endangered,48.4457,-123.4205
Zo'é,177,Vulnerable,0.7909,-57.1289
Central Ojibwe,175,Definitely endangered,50.2275,-86.9635
Kuurinji,175,Definitely endangered,-18.1047,129.8474
Mwatebu,166,Definitely endangered,-10.0202,151.0537
Zazao,166,Critically endangered,-8.1832,159.2269
"Zapotec of the Southern mountains, northwest lowlands",164,Definitely endangered,16.6333,-96.95
Pije,161,Severely endangered,-20.7869,164.9487
Aweti,160,Vulnerable,-12.2053,-53.3705
Koro,160,Definitely endangered,-14.3242,167.4728
Meriam Mir,160,Definitely endangered,-9.9201,144.0472
Onjab,160,Vulnerable,-9.2973,149.1613
Tsimshian,160,Critically endangered,54.5016,-130.3832
Chihuahua Lower Pima,159,Definitely endangered,28.686,-106.1378
Sonora Lower Pima,159,Severely endangered,28.3716,-108.9265
Kaska,155,Severely endangered,61.9751,-132.4544
Aikana,150,Definitely endangered,-12.651,-60.3918
Aleut (Eastern),150,Critically endangered,54.7212,-164.4433
Aleut (Western),150,Severely endangered,52.2304,-174.1978
Amblong,150,Definitely endangered,-15.4933,166.9846
Arguni,150,Vulnerable,-2.6632,132.5418
Assiniboine (United States of America),150,Critically endangered,48.4466,-114.8783
Baki,150,Vulnerable,-16.7013,168.145
Cacua,150,Severely endangered,0.9166,-69.5
Camarines Norte Agta,150,Severely endangered,14.0135,122.8873
Cubeo (Brazil),150,Definitely endangered,1.2713,-67.8076
Gwich'in (United States of America),150,Severely endangered,68.1171,-145.5173
Hiw,150,Definitely endangered,-13.1343,166.5671
Katxuyana-Xikuyána,150,Vulnerable,2.043,-55.4589
Ket,150,Severely endangered,62.6236,87.7148
Koyukon,150,Critically endangered,66.3375,-151.1608
Malmariv,150,Vulnerable,-15.2656,166.9104
Mt. Iraya Agta,150,Definitely endangered,13.459,123.5467
Ocaina (Peru),150,Critically endangered,-2.8552,-71.9824
Papapana,150,Definitely endangered,-5.8974,155.2505
Quechan,150,Definitely endangered,32.7279,-114.7255
Southern Ayta,150,Critically endangered,13.027,124.1549
Tundra Yukagir,150,Critically endangered,69.1654,154.4732
Tupari,150,Definitely endangered,-12.0876,-62.4792
Wari,150,Definitely endangered,-3.2173,138.4497
Yavapai,150,Severely endangered,34.5638,-112.4453
Mlabri,149,Definitely endangered,18.4796,101.0961
Negidal,147,Critically endangered,52.942,139.779
Suarmin,145,Definitely endangered,-5.0526,141.9818
Kickapoo (Mexico),144,Critically endangered,28,-101.75
Wab,142,Vulnerable,-5.6296,146.39
Motocintlec,141,Critically endangered,15.3709,-92.2484
Dengalu,140,Definitely endangered,-7.0572,146.3598
Dimbong,140,Critically endangered,4.7078,10.6567
Kunbarlang,140,Severely endangered,-12.0661,134.0661
Machineri (Bolivia),140,Severely endangered,-11.146,-69.0161
Taworta,140,Vulnerable,-3.2776,138.7902
?Hoa,140,Critically endangered,-24.1668,24.4885
Handuri,138,Critically endangered,31.0011,77.3107
Suruahá,136,Vulnerable,-6.8828,-66.9726
Kutenai,135,Severely endangered,49.6467,-115.7372
Nauna,130,Vulnerable,-2.2159,148.1986
Okanagan,130,Definitely endangered,50.3059,-119.3228
Piu,130,Definitely endangered,-6.9591,146.4257
Ocaina (Colombia),126,Severely endangered,-2,-71.5
Yuki,125,Severely endangered,-16.2463,-65.0061
Asurini do Xingu,124,Vulnerable,-3.9095,-52.4707
Nahukwa,124,Definitely endangered,-12.1043,-53.2944
Aputai,120,Critically endangered,-7.6511,126.4086
Budibud,120,Vulnerable,-9.2973,153.6891
Capanahua,120,Severely endangered,-6.5991,-74.2895
Dâw,120,Vulnerable,0.2197,-68.7744
Ili Turk,120,Severely endangered,44.0244,81.145
Lamu,120,Critically endangered,26.2434,100.8654
Obokuitai,120,Vulnerable,-2.9046,138.0816
Polonomombauk,120,Definitely endangered,-15.4907,167.0814
Samre,120,Critically endangered,12.1166,103.0833
Tutuba,120,Definitely endangered,-15.5727,167.275
Northern Tutchone,115,Definitely endangered,62.8255,-136.5838
Dubu,110,Vulnerable,-3.5134,140.8612
Haisla,110,Critically endangered,53.9745,-128.6443
Heiltsuk,105,Critically endangered,52.1591,-128.1546
Kwegu,103,Critically endangered,5.4191,36.0791
Adnyamathanha,100,Definitely endangered,-30.6,138.6035
Ainbai,100,Severely endangered,-3.1,141.2
Arem,100,Severely endangered,18.1771,105.3369
Banawá Yafi,100,Vulnerable,-6.6427,-64.5996
Bara (Colombia),100,Critically endangered,0.05,-70.1733
Bikaru,100,Severely endangered,-4.8,143
Boor,100,Critically endangered,10.2149,17.3721
Burate,100,Severely endangered,-2.7811,135.9915
Callahuaya,100,Critically endangered,-15.1357,-69.1699
Comanche,100,Severely endangered,34.6086,-98.3904
Dabra,100,Vulnerable,-3.4092,139.0209
Djinang,100,Definitely endangered,-12.3507,135.1098
Dulbu,100,Critically endangered,9.985,10.0579
Ghomara,100,Critically endangered,35.0108,-5.5151
Itelmen,100,Critically endangered,57.1496,156.9012
Jebero,100,Critically endangered,-5.3097,-75.9814
Jilbe,100,Critically endangered,11.749,14.5458
Kalamo,100,Severely endangered,-6.7,142.5
Kanowit,100,Severely endangered,2.0652,112.1489
Karas,100,Severely endangered,-3.4585,132.6599
Kiong,100,Critically endangered,5.2906,8.3523
Kofei,100,Severely endangered,-2.3833,136.7907
Likum,100,Definitely endangered,-2.1651,146.6921
Maricopa,100,Severely endangered,33.3772,-112.1676
Mohave (Arizona),100,Severely endangered,34.0231,-114.5045
Mohave (California),100,Severely endangered,34.6905,-114.598
Molo,100,Critically endangered,10.898,34.2773
Mulao,100,Severely endangered,26.5851,107.9524
Mvanip,100,Critically endangered,6.7027,11.2225
Nafi,100,Severely endangered,-6.3999,146.802
Nemadi,100,Critically endangered,18.4118,-9.4482
Ninam (Venezuela),100,Vulnerable,4.5435,-63.5668
Omagua (Peru),100,Critically endangered,-4.0724,-73.103
Oroch,100,Critically endangered,49.1781,139.7625
Oroha,100,Severely endangered,-9.7686,161.51
Pauwi,100,Vulnerable,-1.8151,137.8193
Piame,100,Severely endangered,-4.9,142.85
Pyu,100,Severely endangered,-4.5,140.9
Ruga,100,Critically endangered,25.2844,90.4614
Sahaptin,100,Severely endangered,44.7712,-121.2871
Samatao,100,Critically endangered,24.9359,102.7935
Seneca (United States of America),100,Severely endangered,42.3291,-78.868
Senggi,100,Vulnerable,-3.4339,140.7685
Shawnee,100,Severely endangered,35.359,-96.9298
Shiwiar,100,Severely endangered,-2.2186,-76.8164
Shompen,100,Critically endangered,7.0245,93.8232
Soo,100,Critically endangered,2.161,34.5986
Tai Nora,100,Critically endangered,26.8485,94.5648
Tai Rong,100,Critically endangered,26.9024,94.757
Tangam,100,Critically endangered,29.1473,94.5538
Tariana (Brazil),100,Critically endangered,0.9228,-67.5439
Tirahi,100,Critically endangered,34.3139,70.3729
"Ute (Colorado, Southern Ute)",100,Severely endangered,37.115,-107.6331
Vehes,100,Severely endangered,-6.9427,146.9311
Wik Ngathan,100,Definitely endangered,-14.9561,141.8884
Xokleng,100,Critically endangered,-26.5522,-49.0779
Yangkam,100,Critically endangered,9.1048,9.8904
Yarawata,98,Severely endangered,-4.9377,145.4946
O'odham (Mexico),94,Definitely endangered,31.5188,-112.7472
Samosa,94,Severely endangered,-5.0116,145.5386
Mindiri,93,Severely endangered,-5.5517,146.1538
Usu,93,Severely endangered,-5.2851,145.4974
Iteri,90,Severely endangered,-4.0807,141.5039
Ngarinyin,90,Definitely endangered,-16.9096,125.4199
Repanbitip,90,Definitely endangered,-16.3155,167.6026
Tofanma,90,Vulnerable,-3.5675,140.7925
Taiap,89,Severely endangered,-4.1,144.5
Kusunda,87,Critically endangered,27.9275,84.2866
Patamona (Brazil),87,Vulnerable,4.5216,-60.3808
Xiri,87,Critically endangered,-31.3924,21.0498
Narau,85,Severely endangered,-3.3818,139.8202
Ak,83,Severely endangered,-3.6093,141.6604
Araona,81,Severely endangered,-12.4473,-68.1372
Ari,80,Severely endangered,-8,142.4
Assiniboine (Canada),80,Critically endangered,50.3536,-103.4841
Dorro,80,Severely endangered,-9.1834,141.8994
Gong,80,Severely endangered,15.088,99.523
Itik,80,Vulnerable,-2.3181,139.148
Mari,80,Severely endangered,-9.0478,141.8994
Pwapwa,80,Severely endangered,-20.8074,164.5367
Somm,80,Definitely endangered,-6.1296,146.4642
Tobati,80,Severely endangered,-2.6059,140.7997
Moré,76,Critically endangered,-12.0822,-64.9731
Mores,75,Severely endangered,-15.3583,166.8988
Musan,75,Severely endangered,-4.0355,141.361
Papi,75,Severely endangered,-4.5,142
Sarcee,75,Critically endangered,50.9682,-114.3851
Sekani,75,Critically endangered,58.0952,-122.7067
Arawun,73,Severely endangered,-5.5093,145.8929
Siriano (Brazil),71,Vulnerable,0.5244,-67.5
Teko,71,Severely endangered,15.6582,-92.1427
Anus,70,Severely endangered,-2.1268,139.5126
Awera,70,Vulnerable,-2.7084,136.0395
Boruca,70,Critically endangered,9.001,-83.323
Doutai,70,Severely endangered,-3.2282,138.2189
East Cape Yupik,70,Critically endangered,66.0166,-169.7166
Iresim,70,Severely endangered,-3.6011,135.1428
Mafea,70,Definitely endangered,-15.4219,167.2366
Vilamovian,70,Severely endangered,49.7909,18.762
Western Chocho,70,Severely endangered,17.7486,-97.4409
Yankunytjatjara,70,Definitely endangered,-27.3132,132.0666
Yanyuwa,70,Severely endangered,-15.9613,136.3842
Yapunda,69,Severely endangered,-3.5,142.4
Bothar,68,Severely endangered,-9.0695,141.155
Kari'ña (Brazil),66,Definitely endangered,4.0067,-51.6027
Ritharrngu,66,Definitely endangered,-13.1543,134.8242
Northern Straits Salish,65,Critically endangered,48.488,-122.6363
Sumariup,65,Severely endangered,-4.7,143.3
Ixil (Mexico),64,Critically endangered,19.508,-89.3188
Orok,64,Critically endangered,52.3437,143.0557
Carapana (Brazil),63,Severely endangered,-3.0966,-65.061
Yan-nhangu,61,Definitely endangered,-12.094,134.89
Atemble,60,Definitely endangered,-5.1292,144.7421
Bagupi,60,Definitely endangered,-5.0454,145.5822
Carapana (Colombia),60,Definitely endangered,0.9337,-70.8178
Gooniyandi,60,Severely endangered,-18.8335,125.9912
Gurrgoni,60,Vulnerable,-12.1037,134.3408
Kija,60,Severely endangered,-18.0832,128.1884
Montana Salish,60,Critically endangered,47.5944,-114.1182
Ngangikurunggurr,60,Severely endangered,-14.6792,130.3967
Olultecan,60,Severely endangered,17.9277,-94.8969
Senaya,60,Critically endangered,36.2664,50.0042
Tahltan,60,Critically endangered,57.8451,-129.9745
Tembé,60,Severely endangered,-2.6467,-46.7248
Mosimo,58,Severely endangered,-4.9473,145.5551
Tapayuna,58,Severely endangered,-10.5559,-53.0639
Bepour,57,Severely endangered,-4.586,145.4184
Faita,57,Severely endangered,-5.657,145.5001
Teribe (Costa Rica),57,Critically endangered,9.0593,-83.2876
Kiliwa,56,Critically endangered,31.25,-115.6166
Moere,56,Severely endangered,-4.6038,145.437
Baure,55,Critically endangered,-13.1008,-64.5007
Southern Haida,55,Critically endangered,53.2697,-131.9861
Tlingit (Canada),55,Critically endangered,60.171,-132.7395
Upper Tanana (United States of America),55,Critically endangered,62.6867,-141.2182
Zapotec of Asunción Tlacolulita,53,Critically endangered,16.3,-95.7166
Trumai,51,Critically endangered,-11.8807,-53.6009
Arabela,50,Severely endangered,-1.5818,-75.3881
Arha,50,Critically endangered,-21.3047,165.0146
Banjima,50,Severely endangered,-22.289,119.3774
Bella Coola,50,Critically endangered,52.3823,-126.7255
Budong-Budong,50,Critically endangered,-2.0601,119.3074
Bulgebi,50,Definitely endangered,-5.7485,146.4532
Chiquitano (Brazil),50,Critically endangered,-17.4345,-58.0627
Forest Yukagir,50,Critically endangered,65.4936,151.0757
Gorovu,50,Severely endangered,-4.5,144.6
Iduh (Lao PDR),50,Critically endangered,19.3292,103.3758
Karaim (Lithuania),50,Severely endangered,54.642,24.9499
Kasong,50,Critically endangered,12.564,102.529
Kayupulau,50,Critically endangered,-2.5464,140.725
Lolak,50,Critically endangered,0.8569,124.0081
Maku'a,50,Critically endangered,-8.4017,127.2271
Makurap,50,Severely endangered,-12.1682,-63.0285
Miriwoong,50,Critically endangered,-16.7631,128.9025
Moraori,50,Severely endangered,-8.7113,140.7128
Nakkara,50,Severely endangered,-12.1145,134.5825
Ngarinman,50,Severely endangered,-16.6782,129.7485
Norfolk-Pitcairn (Pitcairn),50,Vulnerable,-24.3721,-128.3203
Omaha-Ponca,50,Critically endangered,42.0817,-96.4855
Omotik,50,Critically endangered,-1.115,35.9143
Onge,50,Critically endangered,10.639,92.4938
Patua,50,Critically endangered,22.1632,113.5464
Paulohi,50,Critically endangered,-3.2721,128.757
Potawatomi (Kansas),50,Critically endangered,39.3251,-95.8495
Potawatomi (Michigan),50,Critically endangered,45.0269,-84.1992
Potawatomi (Oklahoma),50,Critically endangered,35.3135,-96.9255
Potawatomi (Wisconsin),50,Critically endangered,45.5601,-88.83
Salas,50,Severely endangered,-3.135,130.5505
Samray,50,Critically endangered,13.685,101.5931
Sapé,50,Critically endangered,5.0033,-63.5449
Sentilese,50,Critically endangered,11.5446,92.2576
Sian,50,Severely endangered,2.3854,114.3354
Tambotalo,50,Severely endangered,-15.4655,167.1027
Tanacross,50,Critically endangered,64.2159,-145.9643
Tanaina,50,Severely endangered,63.3422,-148.8647
Tanimbili,50,Severely endangered,-11.2935,166.5211
Warumungu,50,Severely endangered,-19.5183,133.9453
Zapotec of San Felipe Tejalapan,50,Critically endangered,17.1099,-96.8539
Tench,49,Critically endangered,-1.6394,150.6939
Mudburra,48,Severely endangered,-16.9727,131.77
Nunggubuyu,44,Severely endangered,-13.8807,135.725
Dumun,42,Critically endangered,-5.5421,146.0906
Kudu-Camo,42,Critically endangered,11.0166,8.8879
Asumboa,40,Severely endangered,-11.2982,166.4868
Bunuba,40,Severely endangered,-17.8951,125.7495
Chamacoco,40,Critically endangered,-23.0595,-55.6127
Garrwa,40,Severely endangered,-17.1197,137.6806
Gumbaynggirr,40,Critically endangered,-30.3349,152.8198
Maremgi,40,Definitely endangered,-2.2571,139.5455
Mono (Western),40,Critically endangered,37.0943,-119.4999
Southern Tutchone,40,Critically endangered,60.7796,-137.4983
Tipai (United States of America),40,Severely endangered,32.6049,-116.4678
Tofa,40,Critically endangered,53.7324,98.2589
Udege,40,Critically endangered,47.6209,136.0903
Yoki,40,Severely endangered,-1.5893,137.9127
Noy,36,Critically endangered,8.9312,17.8829
Chulym Turk,35,Critically endangered,57.3354,88.1542
Kapori,35,Critically endangered,-3.4,139.7
Kaqchikel (Mexico),35,Critically endangered,19.4044,-90.0604
Menominee,35,Critically endangered,44.9356,-88.6144
Quechua of Pacaraos,35,Critically endangered,-11.2538,-76.8054
Turaka,35,Critically endangered,-9.796,149.447
Barasana (Brazil),34,Severely endangered,0.7909,-68.6425
Bilakura,34,Critically endangered,-4.9404,145.5303
Macuna (Brazil),32,Vulnerable,1.1395,-67.7636
Jarawa,31,Critically endangered,12.6028,92.752
Kowaki,31,Critically endangered,-4.6079,145.4067
Kri,31,Severely endangered,18.25,105
Mawak,31,Critically endangered,-4.5819,145.3079
Alabat Island Agta,30,Critically endangered,14.1209,122.0282
Amahai,30,Critically endangered,-3.3352,128.9314
Bardi,30,Severely endangered,-16.9307,122.871
Cahuilla,30,Critically endangered,33.5404,-116.7436
Cambap,30,Critically endangered,6.4872,11.802
Carijona,30,Critically endangered,-1.2743,-70.1147
Chintaw,30,Critically endangered,24.9263,98.2414
Comox/Sliammon,30,Critically endangered,49.6795,-124.9542
Djeoromitxi,30,Severely endangered,-12.05,-64.6655
Duriankere,30,Critically endangered,-1.3896,130.9247
Goundo,30,Critically endangered,9.4761,16.2652
Kawucha,30,Critically endangered,-6.9373,146.1621
Kwerisa,30,Critically endangered,-2.9759,138.153
Mono (Eastern),30,Critically endangered,37.3674,-118.3953
Ngalkbun,30,Severely endangered,-13.5178,134.6264
Punan Batu,30,Critically endangered,2.6021,114
Rama,30,Critically endangered,11.8847,-83.7995
Sia Pedee,30,Critically endangered,0.9887,-79.1674
Ske,30,Severely endangered,-15.9085,168.1924
Valley Yokuts,30,Severely endangered,36.0582,-119.5241
Warnman,30,Severely endangered,-22.9786,122.7832
Wik Ngencherr,30,Severely endangered,-14.0939,141.8554
Wiradjuri,30,Critically endangered,-34.5608,147.041
Malinaltepec Tlapanec,29,Vulnerable,17.2451,-98.6717
Ahtna,25,Critically endangered,62.7547,-144.3164
Bieria,25,Critically endangered,-16.8045,168.2446
Caddo,25,Critically endangered,35.0985,-98.2603
Columbian,25,Critically endangered,48.1764,-119.0523
Iquito,25,Critically endangered,-3.6449,-74.1577
Kwazá,25,Critically endangered,-12.651,-60.4138
Marrithiyel,25,Critically endangered,-13.806,130.0451
Massep,25,Critically endangered,-1.7575,138.3178
Mor,25,Severely endangered,-2.8607,132.7697
Pisamira,25,Critically endangered,1.0656,-70.4388
